bathrooms,bedrooms,city,homeStatus,homeType,latitude,livingArea,longitude,price,state,streetAddress,zipcode,zpid
7.0,6.0,Staten Island,FOR_SALE,SINGLE_FAMILY,40.622337,10375.0,-74.092865,3250000.0,NY,160 Bertha Pl,10301,32286379
1.0,3.0,Bronx,FOR_SALE,CONDO,40.88115,1000.0,-73.87568,234900.0,NY,3555 Kings College Place #1H,10467,2057887516
2.0,2.0,Manhattan,FOR_SALE,CONDO,40.764317,1200.0,-73.9776,329000.0,NY,100 W 57th St APT 18G,10019,72519065
3.0,4.0,Brooklyn,FOR_SALE,MULTI_FAMILY,40.616425,1800.0,-73.941666,772000.0,NY,1572 E 34th St,11234,30756277
2.0,3.0,Staten Island,FOR_SALE,TOWNHOUSE,40.61297,1347.0,-74.07958,220000.0,NY,330 Skyline Dr #H,10304,450046246
2.0,3.0,Staten Island,FOR_SALE,SINGLE_FAMILY,40.618034,1181.0,-74.15633,499900.0,NY,6 Jules Dr,10314,32305414
8.0,5.0,New York,FOR_SALE,CONDO,40.764774,11480.0,-73.97785,110000000.0,NY,111 W 57th St UNIT QUADPLEX 80,10019,449319167
17.0,8.0,Staten Island,FOR_SALE,SINGLE_FAMILY,40.595013,33000.0,-74.10643,18000000.0,NY,177 Benedict Rd,10304,32294383
4.0,4.0,Staten Island,FOR_SALE,SINGLE_FAMILY,40.50316,2700.0,-74.241356,995000.0,NY,526 Yetman Ave,10307,32375903
1.0,2.0,New York,FOR_SALE,CONDO,40.800392,0.0,-73.94421,245000.0,NY,1779 Madison Ave APT 402,10035,120787993
1.0,3.0,South Ozone Park,FOR_SALE,SINGLE_FAMILY,40.675747,1556.0,-73.82241,274000.0,NY,115-30 116th St,11420,2078094339
6.0,5.0,New York,FOR_SALE,CONDO,40.747578,0.0,-74.0073,75000000.0,NY,551 W 21st St APT PENTHOUSE,10011,444372194
3.0,2.0,Staten Island,FOR_SALE,SINGLE_FAMILY,40.593166,2060.0,-74.063805,648888.0,NY,12 Sea Gate Ct,10305,58577998
2.0,5.0,Brooklyn,FOR_SALE,MULTI_FAMILY,40.68025,2904.0,-73.93286,1450000.0,NY,81 Chauncey St,11233,30606268
3.0,3.0,Staten Island,FOR_SALE,SINGLE_FAMILY,40.603138,1232.0,-74.08099,1000000.0,NY,46 Delphine Ter,10305,32322302
3.0,2.0,New York,FOR_SALE,SINGLE_FAMILY,40.747047,0.0,-73.97787,5595000.0,NY,6 Sniffen Ct,10016,31507257
2.0,4.0,Flushing,FOR_SALE,MULTI_FAMILY,40.77264,1776.0,-73.81584,1418888.0,NY,28-10 150th street,11354,32033607
7.0,5.0,New York,FOR_SALE,CONDO,40.716434,8770.0,-74.00334,19250000.0,NY,108 Leonard St,10013,338434784
14.0,6.0,New York,FOR_SALE,TOWNHOUSE,40.765636,14825.0,-73.97102,70000000.0,NY,8 E 62nd St,10065,31533267
2.0,3.0,Jamaica,FOR_SALE,SINGLE_FAMILY,40.69436,1056.0,-73.7628,575000.0,NY,18918 Tioga Dr,11412,32143397
2.0,3.0,Jamaica,FOR_SALE,SINGLE_FAMILY,40.687923,0.0,-73.827576,195000.0,NY,10151 116th St,11419,32123970
2.0,3.0,South Ozone Park,FOR_SALE,SINGLE_FAMILY,40.66973,0.0,-73.806885,290000.0,NY,131-36 132nd St,11420,2062695224
2.0,3.0,Flushing,FOR_SALE,SINGLE_FAMILY,40.749653,1350.0,-73.78054,998888.0,NY,198-20 50th Avenue,11365,32083108
3.0,3.0,Staten Island,FOR_SALE,SINGLE_FAMILY,40.56138,1440.0,-74.147934,788000.0,NY,15 Jumel St,10308,59820812
1.0,1.0,Jackson Heights,FOR_SALE,CONDO,40.75159,693.0,-73.88653,250000.0,NY,35-21 80th Street #21,11372,441861582
2.0,4.0,Bronx,FOR_SALE,MULTI_FAMILY,40.849655,1440.0,-73.84936,749997.0,NY,1704 Yates Avenue,10461,29814877
3.0,4.0,Saint Albans,FOR_SALE,SINGLE_FAMILY,40.705376,1533.0,-73.77181,749000.0,NY,104-05 185th St,11412,2056682275
4.0,4.0,Brooklyn,FOR_SALE,SINGLE_FAMILY,40.678375,3788.0,-73.97068,6500000.0,NY,177 Prospect Pl,11238,30589946
1.0,3.0,Staten Island,FOR_SALE,SINGLE_FAMILY,40.5604,1056.0,-74.10159,550000.0,NY,177 Cedar Grove Ave,10306,32336107
8.0,5.0,New York,FOR_SALE,TOWNHOUSE,40.735027,7373.0,-73.99603,35000000.0,NY,34 W 12th St,10011,2070296330
3.0,3.0,New York,FOR_SALE,CONDO,40.764317,1800.0,-73.9776,475000.0,NY,100 W 57th St #17IH,10019,72519078
1.0,1.0,Brooklyn,FOR_SALE,CONDO,40.669395,338.0,-73.92284,150000.0,NY,578 Ralph Ave APT C3,11233,448042242
1.0,1.0,Bronx,FOR_SALE,CONDO,40.848644,750.0,-73.88372,95000.0,NY,805 E 182nd Street #4E,10460,450876172
2.0,3.0,Staten Island,FOR_SALE,CONDO,40.62011,1690.0,-74.10983,350000.0,NY,1000 Clove Rd #6P & 6O,10301,440063451
2.0,3.0,Bronx,FOR_SALE,CONDO,40.822052,1200.0,-73.80624,149900.0,NY,9 Alden Park #9,10465,2063503685
1.0,1.0,Brooklyn,FOR_SALE,CONDO,40.709633,,-73.95279,400000.0,NY,374 S 2nd St APT 11,11211,119917305
4.0,4.0,Flushing,FOR_SALE,SINGLE_FAMILY,40.770023,3352.0,-73.73085,1695000.0,NY,255-10 Iowa Road,11362,32096077
11.0,4.0,New York,FOR_SALE,SINGLE_FAMILY,40.716396,10582.0,-74.010124,34000000.0,NY,145 Reade St,10013,31493608
3.0,7.0,Flushing,FOR_SALE,MULTI_FAMILY,40.695347,1840.0,-73.90203,1188000.0,NY,1625 Summerfield St,11385,32011318
2.0,2.0,Queens,FOR_SALE,CONDO,40.764935,1479.0,-73.79852,449900.0,NY,35-05 167th Street #14,11358,338696660
1.0,1.0,New York,FOR_SALE,CONDO,40.78093,672.0,-73.98542,418000.0,NY,8 Riverside Dr W UNIT 1K,10023,444361723
2.0,3.0,Glendale,FOR_SALE,SINGLE_FAMILY,40.696056,2300.0,-73.89255,609000.0,NY,78-30 62nd Street,11385,32015731
1.0,1.0,Brooklyn,FOR_SALE,CONDO,40.709633,650.0,-73.95279,415000.0,NY,374 S 2nd St #PENTHOUSE 39,11211,450595654
4.0,4.0,Staten Island,FOR_SALE,SINGLE_FAMILY,40.536766,3200.0,-74.15385,1199000.0,NY,164 Thornycroft Ave,10312,32348706
2.0,3.0,Brooklyn,FOR_SALE,SINGLE_FAMILY,40.610477,1078.0,-73.93503,690000.0,NY,3319 Fillmore Ave,11234,30783776
3.0,4.0,Staten Island,FOR_SALE,MULTI_FAMILY,40.625664,1760.0,-74.14081,649000.0,NY,338 Decker Ave,10302,32297276
2.0,2.0,New York,FOR_SALE,CONDO,40.763935,1335.0,-73.96417,550000.0,NY,205 E 63rd St APT 14D,10065,443678350
1.0,2.0,New York,FOR_SALE,CONDO,40.720894,0.0,-73.978424,585000.0,NY,327 E 3rd St APT 5A,10009,122586129
2.0,3.0,Staten Island,FOR_SALE,SINGLE_FAMILY,40.528835,2038.0,-74.20085,899900.0,NY,80 Valdemar Ave,10309,32369345
1.0,3.0,Flushing,FOR_SALE,SINGLE_FAMILY,40.768963,1080.0,-73.78963,598000.0,NY,32-19 Jordan Street,11358,32058763
2.0,3.0,Staten Island,FOR_SALE,MULTI_FAMILY,40.535988,2444.0,-74.20941,969000.0,NY,1008 Rathbun Ave,10309,32370735
4.0,4.0,Jamaica,FOR_SALE,SINGLE_FAMILY,40.684216,2069.0,-73.81618,749999.0,NY,12605 109th Avenue,11420,32129078
2.0,2.0,Jamaica,FOR_SALE,CONDO,40.71719,1050.0,-73.81251,320000.0,NY,147-43 Village Road #38C,11435,79734304
2.0,3.0,Brooklyn,FOR_SALE,SINGLE_FAMILY,40.62004,1012.0,-73.92772,500000.0,NY,1669 E 49th St,11234,30764373
1.0,2.0,Jamaica,FOR_SALE,SINGLE_FAMILY,40.67905,475.0,-73.8061,489990.0,NY,134-07 116th Avenue,11420,32174243
3.0,6.0,Bronx,FOR_SALE,MULTI_FAMILY,40.841637,1600.0,-73.83441,948000.0,NY,1528 Mayflower Avenue,10461,29842541
2.0,3.0,Staten Island,FOR_SALE,SINGLE_FAMILY,40.566708,1250.0,-74.15086,649999.0,NY,59 Tanglewood Dr,10308,32340748
1.0,2.0,New York,FOR_SALE,CONDO,40.71194,1391.0,-73.99404,650000.0,NY,48 Market St FLOOR 7,10002,450555942
2.0,2.0,Staten Island,FOR_SALE,TOWNHOUSE,40.54522,2001.0,-74.1674,549999.0,NY,75 Chesebrough St,10312,32355511
3.0,6.0,Bronx,FOR_SALE,MULTI_FAMILY,40.831215,2598.0,-73.86555,1400000.0,NY,1241 Taylor Avenue,10472,29795440
1.0,1.0,Bronx,FOR_SALE,CONDO,40.868286,800.0,-73.86324,100000.0,NY,2922 Barnes Avenue #3A,10467,244451546
1.0,2.0,Jamaica,FOR_SALE,CONDO,40.713127,856.0,-73.81909,250000.0,NY,139-15 83rd Ave APT 310,11435,245453608
1.0,2.0,Brooklyn,FOR_SALE,CONDO,40.68202,0.0,-73.99791,999000.0,NY,232 President St APT 4R,11231,72656535
2.0,3.0,Staten Island,FOR_SALE,SINGLE_FAMILY,40.56339,1050.0,-74.14175,549000.0,NY,240 Corona Ave,10306,32340694
6.0,8.0,Brooklyn,FOR_SALE,MULTI_FAMILY,40.706676,4800.0,-73.920654,399000.0,NY,58 Saint Nicholas Ave #6,11237,440959976
2.0,2.0,Oakland Gardens,FOR_SALE,CONDO,40.74389,895.0,-73.75943,445000.0,NY,67-15 Bell Boulevard #Duplex,11364,219873781
1.0,2.0,Bronx,FOR_SALE,CONDO,40.888115,1000.0,-73.90485,359000.0,NY,3840 greystone Avenue #5G,10463,244444733
2.0,6.0,Jamaica,FOR_SALE,MULTI_FAMILY,40.669086,0.0,-73.789345,250000.0,NY,13026 150th St,11436,83052639
1.0,2.0,New York,FOR_SALE,CONDO,40.806496,0.0,-73.93867,198000.0,NY,78 E 127th St APT 18,10035,444452226
9.0,6.0,New York,FOR_SALE,CONDO,40.7615,8255.0,-73.971794,90000000.0,NY,432 Park Ave #PENTHOUSE,10022,2069500049
1.0,2.0,New York,FOR_SALE,CONDO,40.720913,0.0,-73.990845,585000.0,NY,46 Rivington St APT 1C,10002,450857947
3.0,3.0,Brooklyn,FOR_SALE,MULTI_FAMILY,40.670677,0.0,-73.98712,2250000.0,NY,237 8th St,11215,30584465
2.0,2.0,Bronx,FOR_SALE,SINGLE_FAMILY,40.8579,700.0,-73.789696,419000.0,NY,191 Terrace St,10464,29851273
1.0,1.0,New York,FOR_SALE,CONDO,40.76163,0.0,-73.98901,330000.0,NY,344 W 48th St APT 2FE,10036,244730063
8.0,6.0,New York,FOR_SALE,CONDO,40.739204,6659.0,-73.99475,35000000.0,NY,55 W 17th St #PENTHOUSE,10011,442165940
2.0,3.0,Flushing,FOR_SALE,SINGLE_FAMILY,40.767696,1080.0,-73.787575,859000.0,NY,33-18 201st Street,11361,32059663
2.0,2.0,Jamaica,FOR_SALE,CONDO,40.66786,900.0,-73.85071,395000.0,NY,15115 84th Street #3M,11414,32168760
4.0,6.0,Little Neck,FOR_SALE,MULTI_FAMILY,40.7716,3528.0,-73.73384,1898888.0,NY,253-45 Pembroke Avenue,11362,2068400024
4.0,4.0,New York,FOR_SALE,CONDO,40.761723,7455.0,-73.97834,64730000.0,NY,53 W 53rd St #PENTHOUSE 78,10019,338435923
3.0,4.0,Staten Island,FOR_SALE,SINGLE_FAMILY,40.5526,2288.0,-74.159325,599999.0,NY,61 E Figurea Ave,10308,32353049
2.0,6.0,Bronx,FOR_SALE,MULTI_FAMILY,40.876026,1824.0,-73.84545,625000.0,NY,3344 Eastchester Road,10469,29829880
4.0,6.0,Brooklyn,FOR_SALE,SINGLE_FAMILY,40.63639,5000.0,-73.96463,2995000.0,NY,1320 Ditmas Ave,11226,30668937
2.0,3.0,Staten Island,FOR_SALE,TOWNHOUSE,40.562767,1354.0,-74.184586,515000.0,NY,224 Aspen Knolls Way,10312,32360402
2.0,2.0,New York,FOR_SALE,CONDO,40.744602,1693.0,-74.00578,999000.0,NY,459 W 18th St APT 1,10011,97527333
1.0,1.0,New York,FOR_SALE,CONDO,40.731194,0.0,-73.98693,385000.0,NY,226 E 12th St APT 1H,10003,244898726
4.0,6.0,Bronx,FOR_SALE,MULTI_FAMILY,40.81895,2477.0,-73.81196,779000.0,NY,248 Kearney Avenue,10465,29846644
3.0,6.0,Jamaica,FOR_SALE,SINGLE_FAMILY,40.69825,2042.0,-73.83224,915000.0,NY,8746 117th St,11418,32119673
3.0,3.0,Staten Island,FOR_SALE,SINGLE_FAMILY,40.55243,1512.0,-74.1795,749000.0,NY,75 Ludlow St,10312,32357982
1.0,3.0,Staten Island,FOR_SALE,SINGLE_FAMILY,40.57222,1036.0,-74.13408,699999.0,NY,62 Morton St,10306,32338457
3.0,3.0,Brooklyn,FOR_SALE,SINGLE_FAMILY,40.614906,1800.0,-74.01474,1220000.0,NY,1243 86th St,11228,30711255
1.0,2.0,Staten Island,FOR_SALE,TOWNHOUSE,40.501694,1310.0,-74.23769,424000.0,NY,110 Surfside Plz #88,10307,32375323
2.0,2.0,Bronx,FOR_SALE,SINGLE_FAMILY,40.81741,960.0,-73.81231,550000.0,NY,204 Throggs Neck Boulevard,10465,2056746571
1.0,1.0,New York,FOR_SALE,CONDO,40.72398,0.0,-73.989525,350000.0,NY,50 E 1st St APT 14,10003,244706819
4.0,16.0,Brooklyn,FOR_SALE,MULTI_FAMILY,40.655903,0.0,-73.91604,500000.0,NY,494 E 96th St,11212,30653290
5.0,7.0,Brooklyn,FOR_SALE,SINGLE_FAMILY,40.67127,0.0,-73.971695,12995000.0,NY,18 Prospect Park W #1,11215,2072572395
2.0,3.0,Brooklyn,FOR_SALE,SINGLE_FAMILY,40.622948,1344.0,-74.015854,1200000.0,NY,7716 10th Ave,11228,30696601
3.0,6.0,Queens Village,FOR_SALE,MULTI_FAMILY,40.721977,,-73.743645,705000.0,NY,94-37 211th St,11428,444387659
2.0,3.0,Bronx,FOR_SALE,TOWNHOUSE,40.82223,1000.0,-73.87846,387000.0,NY,918 Wheeler Avenue #918C,10473,450807271
1.0,1.0,Forest Hills,FOR_SALE,CONDO,40.72772,,-73.84715,189000.0,NY,67-38 108 Street #D5,11375,2062999704
2.0,3.0,New York,FOR_SALE,CONDO,40.768272,1046.0,-73.95711,250000.0,NY,342 E 72nd St #1E,10021,450059920
2.0,4.0,Brooklyn,FOR_SALE,CONDO,40.67312,1782.0,-73.949554,699000.0,NY,848 Park Pl APT 4E,11216,352313131
2.0,3.0,Staten Island,FOR_SALE,SINGLE_FAMILY,40.550526,2350.0,-74.21687,830000.0,NY,25 Kunath Ave,10309,32372141
3.0,4.0,Staten Island,FOR_SALE,SINGLE_FAMILY,40.631916,2227.0,-74.078,819999.0,NY,67 Brewster St,10304,32284423
3.0,4.0,New York,FOR_SALE,CONDO,40.72628,0.0,-73.994,9495000.0,NY,21 Bond St,10012,31497946
3.0,4.0,Rosedale,FOR_SALE,MULTI_FAMILY,40.65616,1666.0,-73.73982,689999.0,NY,24519 147th Drive,11422,450224678
3.0,5.0,Flushing,FOR_SALE,SINGLE_FAMILY,40.72952,1701.0,-73.79004,1188000.0,NY,7343 179th Street,11366,32078648
11.0,10.0,New York,FOR_SALE,TOWNHOUSE,40.778748,9016.0,-73.961235,49000000.0,NY,9 E 82nd St APT 2,10028,450868256
4.0,4.0,Brooklyn,FOR_SALE,MULTI_FAMILY,40.6766,3176.0,-73.94042,1899000.0,NY,1447 Dean St,11213,30591230
2.0,2.0,Oakland Gardens,FOR_SALE,CONDO,40.743828,895.0,-73.7594,445000.0,NY,67-15 Bell Blvd #2,11364,450815007
1.0,3.0,Little Neck,FOR_SALE,CONDO,40.75905,960.0,-73.72316,415000.0,NY,60-46 Little Neck Parkway # 863,11362,248309664
2.0,3.0,Howard Beach,FOR_SALE,CONDO,40.665497,1250.0,-73.84491,345000.0,NY,155-25 89 Street #3,11414,2067265958
6.0,5.0,New York,FOR_SALE,CONDO,40.7662,7074.0,-73.981,59900000.0,NY,217 W 57th St #126,10019,338593841
2.0,3.0,Jamaica,FOR_SALE,SINGLE_FAMILY,40.69947,1399.0,-73.81743,699000.0,NY,89-48 134th St,11418,32120598
2.0,4.0,Flushing,FOR_SALE,SINGLE_FAMILY,40.748238,1942.0,-73.78543,999000.0,NY,5012 194th Street,11365,32052222
2.0,3.0,Staten Island,FOR_SALE,SINGLE_FAMILY,40.547825,1504.0,-74.15885,748888.0,NY,156 Wilson Ave,10308,32352626
9.0,8.0,Brooklyn,FOR_SALE,SINGLE_FAMILY,40.5785,8000.0,-73.94392,11600000.0,NY,176 Irwin St,11235,30791112
2.0,3.0,New York,FOR_SALE,CONDO,40.775345,0.0,-73.961334,725000.0,NY,888 Park Ave,10075,31534248
2.0,2.0,Woodside,FOR_SALE,CONDO,40.744595,810.0,-73.91523,899990.0,NY,49-07 43rd Avenue #7F,11377,83053177
3.0,2.0,Staten Island,FOR_SALE,SINGLE_FAMILY,40.58463,1404.0,-74.158775,649000.0,NY,22 Villa Nova St,10314,32313988
6.0,5.0,Staten Island,FOR_SALE,SINGLE_FAMILY,40.51941,4466.0,-74.20413,1799999.0,NY,237 Bayview Ave,10309,89076284
2.0,3.0,Staten Island,FOR_SALE,SINGLE_FAMILY,40.543583,1280.0,-74.172585,599000.0,NY,31 Ray St,10312,143782316
2.0,2.0,Howard Beach,FOR_SALE,CONDO,40.66834,950.0,-73.84845,279888.0,NY,86-10 151 Avenue #4G,11414,79741134
2.0,3.0,Bronx,FOR_SALE,SINGLE_FAMILY,40.851078,1632.0,-73.832306,649000.0,NY,1959B Edison Avenue,10461,29816668
3.0,4.0,Staten Island,FOR_SALE,MULTI_FAMILY,40.579556,2112.0,-74.08815,699000.0,NY,244 Slater Blvd,10305,32332284
7.0,4.0,New York,FOR_SALE,SINGLE_FAMILY,40.774235,5100.0,-73.95369,5450000.0,NY,308 E 81st St,10028,31543959
3.0,4.0,Long Island City,FOR_SALE,SINGLE_FAMILY,40.7471,1728.0,-73.9468,1100000.0,NY,2124 45th Ave,11101,2101696146
2.0,3.0,Staten Island,FOR_SALE,SINGLE_FAMILY,40.5528,1410.0,-74.171555,765000.0,NY,90 Scranton Ave,10312,32355995
1.0,1.0,New York,FOR_SALE,CONDO,40.72799,0.0,-74.00015,445000.0,NY,181 Thompson St APT 22,10012,113975922
2.0,3.0,Jamaica,FOR_SALE,SINGLE_FAMILY,40.70435,1265.0,-73.7301,300000.0,NY,22702 112th Rd,11429,32163775
2.0,3.0,Cambria Heights,FOR_SALE,SINGLE_FAMILY,40.701347,3000.0,-73.74678,625000.0,NY,114-20 208th St,11411,32158947
1.0,2.0,New York,FOR_SALE,CONDO,40.763317,0.0,-73.99108,480000.0,NY,434 W 49th St APT 1W,10019,219662253
6.0,5.0,New York,FOR_SALE,SINGLE_FAMILY,40.771927,6600.0,-73.96032,28000000.0,NY,178 E 75th St,10021,31535475
5.0,4.0,New York,FOR_SALE,CONDO,40.764954,6512.0,-73.97757,49000000.0,NY,111 W 57th St #PENTHOUSE 76,10019,442155685
2.0,3.0,Flushing,FOR_SALE,SINGLE_FAMILY,40.776478,1080.0,-73.80973,868888.0,NY,24-10 154th Street,11357,32031928
2.0,2.0,Staten Island,FOR_SALE,TOWNHOUSE,40.56296,1500.0,-74.1398,499999.0,NY,44 Hart Loop,10306,32340398
5.0,3.0,Staten Island,FOR_SALE,SINGLE_FAMILY,40.637238,1716.0,-74.12095,550000.0,NY,76 Alaska St,10310,68316766
1.0,2.0,Brooklyn,FOR_SALE,SINGLE_FAMILY,40.688232,0.0,-73.91474,350000.0,NY,1050 Hancock St APT 3E,11221,2113365341
1.0,2.0,Far Rockaway,FOR_SALE,CONDO,40.595795,900.0,-73.74949,217000.0,NY,14-30 Seagirt Blvd #4C,11691,323055859
2.0,4.0,Brooklyn,FOR_SALE,MULTI_FAMILY,40.675823,1680.0,-73.88281,399900.0,NY,399 Linwood Street,11208,30638750
3.0,5.0,Brooklyn,FOR_SALE,TOWNHOUSE,40.684425,2912.0,-73.996864,3350000.0,NY,357 Clinton St,11231,30569230
1.0,3.0,Bronx,FOR_SALE,CONDO,40.848816,1100.0,-73.90534,275000.0,NY,212 E Tremont Ave #9,10457,2054481177
15.0,7.0,New York,FOR_SALE,SINGLE_FAMILY,40.76873,13017.0,-73.96869,44950000.0,NY,10 E 67th St,10065,31533539
3.0,4.0,Bayside Hills,FOR_SALE,SINGLE_FAMILY,40.754734,2236.0,-73.76435,1198800.0,NY,4916 216th Street,11364,32083657
2.0,3.0,Staten Island,FOR_SALE,SINGLE_FAMILY,40.643787,988.0,-74.096794,548000.0,NY,238 Van Buren Street,10301,32272043
1.0,3.0,Brooklyn,FOR_SALE,CONDO,40.678696,0.0,-73.97041,1195000.0,NY,182 Saint Marks Ave APT 2,11238,82829651
2.0,3.0,Brooklyn,FOR_SALE,CONDO,40.687553,1117.0,-73.99914,1295000.0,NY,138 Baltic St APT 4C,11201,116169447
1.0,3.0,Whitestone,FOR_SALE,CONDO,40.78385,0.0,-73.8007,370000.0,NY,16-22 163rd St #6-348,11357,2056468088
1.0,2.0,Brooklyn,FOR_SALE,CONDO,40.671,0.0,-73.9854,695000.0,NY,322 6th St APT 5,11215,123849376
3.0,6.0,Woodside,FOR_SALE,MULTI_FAMILY,40.74095,2587.0,-73.89264,1288000.0,NY,44-10 72nd St #PENTHOUSE,11377,451006480
12.0,9.0,New York,FOR_SALE,TOWNHOUSE,40.77723,20000.0,-73.96277,49950000.0,NY,4 E 80th St,10075,31540062
3.0,4.0,Staten Island,FOR_SALE,SINGLE_FAMILY,40.526817,3190.0,-74.20071,899000.0,NY,5780 Amboy Rd,10309,32367645
7.0,5.0,New York,FOR_SALE,CONDO,40.758244,9191.0,-73.96127,65000000.0,NY,430 E 58th St #PENTHOUSE 80,10022,441781042
3.0,5.0,Brooklyn,FOR_SALE,SINGLE_FAMILY,40.659134,1824.0,-73.89396,770000.0,NY,699 Alabama Avenue,11207,55677264
3.0,3.0,New York,FOR_SALE,CONDO,40.782757,0.0,-73.97588,1825000.0,NY,110 W 80th St #4FR,10024,450783887
4.0,5.0,Staten Island,FOR_SALE,MULTI_FAMILY,40.606213,2032.0,-74.143684,1250000.0,NY,679 Collfield Ave,10314,32292033
2.0,3.0,Staten Island,FOR_SALE,SINGLE_FAMILY,40.595116,1020.0,-74.07467,699888.0,NY,100 Bionia Ave,10305,32325709
2.0,4.0,Flushing,FOR_SALE,MULTI_FAMILY,40.756836,0.0,-73.78772,1098000.0,NY,4336 194th St,11358,32049096
2.0,3.0,Staten Island,FOR_SALE,SINGLE_FAMILY,40.566,1152.0,-74.15297,699000.0,NY,39 Troy St,10308,145558350
1.0,2.0,Brooklyn,FOR_SALE,CONDO,40.60069,920.0,-73.93341,270000.0,NY,2265 Gerritsen Ave APT 4D,11229,245045957
10.0,8.0,New York,FOR_SALE,TOWNHOUSE,40.782703,15950.0,-73.958565,38000000.0,NY,9 E 88th St,10128,31540731
7.0,7.0,New York,FOR_SALE,CONDO,40.772373,5516.0,-73.95617,24700000.0,NY,255 E 77th St UNIT PHB,10075,446735693
5.0,4.0,New York,FOR_SALE,CONDO,40.767,3703.0,-73.97974,39000000.0,NY,220 Central Park S APT 32A,10019,321906043
1.0,0.0,New York,FOR_SALE,CONDO,40.79473,0.0,-73.93507,96400.0,NY,424 E 115th St APT 3C,10029,345380900
2.0,2.0,New York,FOR_SALE,CONDO,40.776314,0.0,-73.94534,499000.0,NY,519 E 87th St APT C,10128,72540383
2.0,3.0,Bayside,FOR_SALE,CONDO,40.787586,0.0,-73.787994,799000.0,NY,1328 Robin Lane #67U,11360,450356309
3.0,6.0,Brooklyn,FOR_SALE,SINGLE_FAMILY,40.714478,2829.0,-73.963524,2250000.0,NY,94 S 1st St #11249,11249,450286636
2.0,3.0,Staten Island,FOR_SALE,TOWNHOUSE,40.59565,1571.0,-74.15924,648000.0,NY,14 Grissom Ave,10314,32308857
1.0,2.0,Bronx,FOR_SALE,CONDO,40.834866,900.0,-73.884735,150000.0,NY,1670 Longfellow Avenue #2A,10460,303962849
1.0,2.0,Bronx,FOR_SALE,CONDO,40.892094,950.0,-73.85608,169000.0,NY,740 E 232nd Street #1F,10466,439920400
4.0,3.0,Brooklyn,FOR_SALE,SINGLE_FAMILY,40.579136,2160.0,-73.93825,1600000.0,NY,164 Oxford St,11235,30791362
1.0,3.0,Brooklyn,FOR_SALE,CONDO,40.63736,1045.0,-74.02722,480000.0,NY,231 68th St APT 302,11220,30691658
2.0,3.0,Brooklyn,FOR_SALE,MULTI_FAMILY,40.6212,0.0,-73.92685,699900.0,NY,5004 Avenue M,11234,30764415
1.0,3.0,Jamaica,FOR_SALE,SINGLE_FAMILY,40.71184,1248.0,-73.76108,599000.0,NY,94-72 199 Street,11423,32153595
5.0,7.0,Brooklyn,FOR_SALE,MULTI_FAMILY,40.598667,2695.0,-74.000114,1399000.0,NY,2115 Cropsey Ave,11214,30714308
13.0,9.0,New York,FOR_SALE,TOWNHOUSE,40.766876,14400.0,-73.970085,54000000.0,NY,12 E 64th St,10065,31533422
2.0,6.0,Staten Island,FOR_SALE,SINGLE_FAMILY,40.619873,1474.0,-74.08226,753000.0,NY,101 Laurel Ave,10304,32285279
4.0,4.0,Staten Island,FOR_SALE,MULTI_FAMILY,40.5643,1536.0,-74.142784,685000.0,NY,21 Luke Court,10306,32340553
2.0,3.0,Bronx,FOR_SALE,SINGLE_FAMILY,40.869156,1890.0,-73.856026,680000.0,NY,2959 Laconia Avenue,10469,29824164
4.0,6.0,Flushing,FOR_SALE,MULTI_FAMILY,40.77057,1749.0,-73.791046,1298000.0,NY,2902 Jordan St,11358,32058528
4.0,4.0,Staten Island,FOR_SALE,MULTI_FAMILY,40.557095,2285.0,-74.18209,825000.0,NY,51 Erika Loop,10312,145558495
1.0,2.0,Staten Island,FOR_SALE,APARTMENT,40.556507,905.0,-74.16271,359000.0,NY,123 Cortelyou Ave #2-3,10308,450857357
1.0,1.0,New York,FOR_SALE,CONDO,40.764317,950.0,-73.9776,214000.0,NY,100 W 57th St APT 6H,10019,79977952
3.0,7.0,Brooklyn,FOR_SALE,MULTI_FAMILY,40.63981,0.0,-73.96392,1650000.0,NY,421 Marlborough Rd #1,11226,2063222362
9.0,6.0,Staten Island,FOR_SALE,MULTI_FAMILY,40.607117,5880.0,-74.0921,1250000.0,NY,820 Richmond Rd,10304,32323516
2.0,3.0,Bayside,FOR_SALE,CONDO,40.782345,1600.0,-73.780426,549000.0,NY,211-40 18 Avenue #4K,11360,448720964
1.0,1.0,New York,FOR_SALE,CONDO,40.735424,0.0,-74.00092,985000.0,NY,5 Charles St APT 3R,10014,244745920
3.0,3.0,Flushing,FOR_SALE,SINGLE_FAMILY,40.775124,2300.0,-73.74602,1700000.0,NY,350 Park Lane,11363,32092907
2.0,4.0,Bronx,FOR_SALE,MULTI_FAMILY,40.866325,1706.0,-73.859825,685000.0,NY,2723 Colden Avenue,10469,29822949
2.0,3.0,Flushing,FOR_SALE,SINGLE_FAMILY,40.740883,1516.0,-73.81283,875000.0,NY,15505 59th Ave,11355,32070605
5.0,4.0,Flushing,FOR_SALE,MULTI_FAMILY,40.77068,1671.0,-73.79814,1488000.0,NY,2904 167th St,11358,32036129
1.0,2.0,Brooklyn,FOR_SALE,CONDO,40.67671,950.0,-73.970184,975000.0,NY,230 Park Pl APT 6N,11238,92996908
6.0,4.0,Staten Island,FOR_SALE,SINGLE_FAMILY,40.60719,7400.0,-74.09631,3995000.0,NY,221 Douglas Rd,10304,112117529
1.0,2.0,Brooklyn,FOR_SALE,CONDO,40.66741,0.0,-73.974724,1275000.0,NY,88 Prospect Park W APT 4D,11215,251176774
2.0,3.0,Staten Island,FOR_SALE,SINGLE_FAMILY,40.530403,1296.0,-74.159515,849900.0,NY,4581 Hylan Blvd,10312,32350687
2.0,3.0,Bronx,FOR_SALE,CONDO,40.8861,1311.0,-73.90741,725000.0,NY,3536 Cambridge Ave APT 4E,10463,89066639
5.0,6.0,Jamaica,FOR_SALE,SINGLE_FAMILY,40.709602,1784.0,-73.75777,1099000.0,NY,10041 201st Street,11423,32154311
5.0,6.0,Brooklyn,FOR_SALE,MULTI_FAMILY,40.664528,2080.0,-73.86701,975000.0,NY,941 Crescent St,11208,116167810
1.0,3.0,Flushing,FOR_SALE,SINGLE_FAMILY,40.76892,1080.0,-73.78974,598000.0,NY,32-19 Jordan St #1,11358,450863899
3.0,3.0,Flushing,FOR_SALE,SINGLE_FAMILY,40.76878,1862.0,-73.807846,1330000.0,NY,3230 157th Street,11354,32034642
1.0,1.0,New York,FOR_SALE,CONDO,40.764317,900.0,-73.9776,199000.0,NY,100 W 57th St #17P,10019,450812066
6.0,5.0,New York,FOR_SALE,TOWNHOUSE,40.775833,8550.0,-73.97852,16400000.0,NY,45 W 70th St,10023,31518799
2.0,2.0,Staten Island,FOR_SALE,SINGLE_FAMILY,40.638554,765.0,-74.16771,379900.0,NY,76 Arlington Avenue,10303,32301043
1.0,2.0,Oakland Gardens,FOR_SALE,CONDO,40.738476,840.0,-73.74361,389000.0,NY,226-41 Kingsbury Avenue #B,11364,245453032
4.0,4.0,Flushing,FOR_SALE,SINGLE_FAMILY,40.776524,,-73.77858,1900000.0,NY,26-44 211th Street,11360,32058121
3.0,5.0,Flushing,FOR_SALE,MULTI_FAMILY,40.7673,2392.0,-73.77829,1298000.0,NY,3520 Corporal Kennedy Street,11361,32060877
2.0,3.0,Brooklyn,FOR_SALE,CONDO,40.665756,2000.0,-73.98044,1995000.0,NY,587 10th St #1,11215,216115744
4.0,3.0,Staten Island,FOR_SALE,SINGLE_FAMILY,40.535397,2350.0,-74.21555,1028000.0,NY,23 Helene Ct,10309,32371250
2.0,3.0,Saint Albans,FOR_SALE,SINGLE_FAMILY,40.707855,1600.0,-73.75669,775000.0,NY,201-15 109th Ave,11412,2056720520
2.0,3.0,Staten Island,FOR_SALE,MULTI_FAMILY,40.53345,2316.0,-74.20384,699999.0,NY,276 Foster Rd,10309,32370186
3.0,4.0,Brooklyn,FOR_SALE,MULTI_FAMILY,40.63827,1836.0,-73.93444,800000.0,NY,1403 Troy Avenue,11203,30663494
3.0,3.0,Staten Island,FOR_SALE,SINGLE_FAMILY,40.597885,1800.0,-74.07738,799000.0,NY,18 Jerome Ave,10305,122176211
4.0,3.0,Flushing,FOR_SALE,SINGLE_FAMILY,40.70992,1567.0,-73.8433,1318000.0,NY,10119 75th Rd,11375,32005155
3.0,3.0,New York,FOR_SALE,CONDO,40.77669,1911.0,-73.96141,950000.0,NY,40 E 80th St APT 3A,10075,72530453
2.0,2.0,Staten Island,FOR_SALE,TOWNHOUSE,40.547092,1575.0,-74.19587,599999.0,NY,3 E Delmar Ave,10312,32363372
3.0,4.0,Brooklyn,FOR_SALE,SINGLE_FAMILY,40.619385,2050.0,-74.01597,1600000.0,NY,8116 11th Ave,11228,30698409
2.0,5.0,Floral Park,FOR_SALE,SINGLE_FAMILY,40.736134,1700.0,-73.70952,899000.0,NY,8429 258th Street,11001,32104342
2.0,4.0,Jamaica,FOR_SALE,MULTI_FAMILY,40.708637,4410.0,-73.766335,865000.0,NY,19208 Hollis Avenue,11423,32153693
1.0,2.0,Jamaica,FOR_SALE,CONDO,40.712875,900.0,-73.81684,325000.0,NY,84-01 Main St #716,11435,325589704
3.0,5.0,Jamaica,FOR_SALE,MULTI_FAMILY,40.689796,,-73.85135,835000.0,NY,8943 92nd Street,11421,32110128
1.0,2.0,Bronx,FOR_SALE,CONDO,40.83611,798.0,-73.85893,350000.0,NY,40 Metropolitan Oval #4G,10462,29801474
5.0,6.0,Flushing,FOR_SALE,MULTI_FAMILY,40.7396,3600.0,-73.901985,1385800.0,NY,44-48 64th Street,11377,31980549
2.0,3.0,Staten Island,FOR_SALE,SINGLE_FAMILY,40.555733,1380.0,-74.15572,729900.0,NY,254 Doane Ave,10308,32351485
4.0,4.0,Little Neck,FOR_SALE,SINGLE_FAMILY,40.777695,3371.0,-73.75257,1999000.0,NY,104 Grosvenor,11363,449319605
3.0,3.0,Woodhaven,FOR_SALE,SINGLE_FAMILY,,1400.0,,799000.0,NY,8563 98th Street,11421,451005220
2.0,3.0,Ridgewood,FOR_SALE,SINGLE_FAMILY,40.69479,1622.0,-73.890854,920000.0,NY,62-22 80th Road,11385,2080383152
12.0,7.0,New York,FOR_SALE,TOWNHOUSE,40.766518,18000.0,-73.97001,39500000.0,NY,15 E 63rd St,10065,344214383
3.0,2.0,Staten Island,FOR_SALE,SINGLE_FAMILY,40.622936,1471.0,-74.12836,829000.0,NY,183 Benedict Ave,10314,32280874
3.0,4.0,Staten Island,FOR_SALE,SINGLE_FAMILY,40.570724,2392.0,-74.13471,998000.0,NY,174 Natick St,10306,32339515
7.0,4.0,New York,FOR_SALE,SINGLE_FAMILY,40.73248,7310.0,-73.99968,49000000.0,NY,122 Waverly Pl,10011,143087924
2.0,3.0,New York,FOR_SALE,CONDO,40.783955,0.0,-73.97083,2395000.0,NY,239 Central Park W #4D,10024,244711111
2.0,3.0,Staten Island,FOR_SALE,SINGLE_FAMILY,40.532227,1926.0,-74.196236,950000.0,NY,37 Ashalnd Ave,10312,451006573
2.0,3.0,Flushing,FOR_SALE,SINGLE_FAMILY,40.785885,1440.0,-73.832886,999998.0,NY,1410 136th Street,11356,32023568
1.0,3.0,Brooklyn,FOR_SALE,CONDO,40.71297,0.0,-73.96062,575000.0,NY,728 Driggs Ave APT 26,11211,450172054
1.0,1.0,New York,FOR_SALE,CONDO,40.728477,740.0,-73.999985,695000.0,NY,160 Bleecker St #3GW,10012,79494083
4.0,4.0,Jamaica,FOR_SALE,SINGLE_FAMILY,40.70405,2013.0,-73.757805,799000.0,NY,11080 199th Street,11412,32156022
2.0,3.0,Brooklyn,FOR_SALE,MULTI_FAMILY,40.684177,1950.0,-73.985374,2150000.0,NY,221A Wyckoff St,11217,30571180
3.0,3.0,Flushing,FOR_SALE,SINGLE_FAMILY,40.712128,0.0,-73.85549,1548000.0,NY,8831 69th Ave,11375,32002807
6.0,5.0,Brooklyn,FOR_SALE,SINGLE_FAMILY,40.60907,11360.0,-73.90641,3600000.0,NY,86 Gaylord Dr,11234,446865378
2.0,2.0,Rego Park,FOR_SALE,CONDO,40.7306,950.0,-73.86668,379000.0,NY,62-64 Saunders #K2,11374,219856153
2.0,3.0,Flushing,FOR_SALE,SINGLE_FAMILY,40.74715,836.0,-73.7932,989000.0,NY,175-39 Underhill Avenue,11365,32050904
6.0,5.0,New York,FOR_SALE,TOWNHOUSE,40.718243,9000.0,-74.00998,27000000.0,NY,19 Jay St FLOOR 1,10013,450551299
8.0,5.0,New York,FOR_SALE,TOWNHOUSE,40.774113,5305.0,-73.95871,13500000.0,NY,163 E 78th St #1,10075,450808795
3.0,5.0,Flushing,FOR_SALE,SINGLE_FAMILY,40.763107,1800.0,-73.73293,1298000.0,NY,249-24 51 Avenue,11362,32095581
2.0,3.0,Bronx,FOR_SALE,CONDO,40.881958,1300.0,-73.917366,429000.0,NY,2711 Henry Hudson Parkway #5A,10463,2123397321
1.0,1.0,Brooklyn,FOR_SALE,CONDO,40.71492,0.0,-73.96181,700000.0,NY,151 Grand St APT 2,11249,245038444
3.0,5.0,Brooklyn,FOR_SALE,SINGLE_FAMILY,40.604916,1776.0,-73.9846,1289000.0,NY,1715 W 12th St,11223,30721429
2.0,3.0,Woodside,FOR_SALE,SINGLE_FAMILY,40.74716,1141.0,-73.8973,800000.0,NY,65-33 38th Ave #5,11377,2064103844
3.0,4.0,Staten Island,FOR_SALE,MULTI_FAMILY,40.514927,3030.0,-74.24168,1249999.0,NY,170 Brehaut Ave,10307,79743674
2.0,3.0,Staten Island,FOR_SALE,MULTI_FAMILY,40.58501,2508.0,-74.15443,1099900.0,NY,67 Bridgetown St,10314,32313650
1.0,3.0,Flushing,FOR_SALE,SINGLE_FAMILY,40.768875,1080.0,-73.78871,758000.0,NY,32-31 200 Street,11361,32058816
3.0,5.0,Flushing,FOR_SALE,MULTI_FAMILY,40.747204,2593.0,-73.758934,1560000.0,NY,61-35 218 Street,11364,32086837
1.0,1.0,New York,FOR_SALE,CONDO,40.82952,0.0,-73.94737,150000.0,NY,563 W 150th St APT 2F,10031,348493511
1.0,2.0,Bayside,FOR_SALE,CONDO,40.78176,1100.0,-73.78337,349000.0,NY,209-20 18th Avenue #6C,11360,2062343245
2.0,3.0,Brooklyn,FOR_SALE,MULTI_FAMILY,40.62108,1840.0,-73.92776,699000.0,NY,4910 Avenue M,11234,30764391
2.0,2.0,Forest Hills,FOR_SALE,CONDO,40.718918,1327.0,-73.83648,1299888.0,NY,112-01 Queens Blvd #19C,11375,31979622
3.0,5.0,Staten Island,FOR_SALE,MULTI_FAMILY,40.614494,2760.0,-74.14855,1210000.0,NY,360 Caswell Ave,10314,32303035
1.0,2.0,Brooklyn,FOR_SALE,SINGLE_FAMILY,40.60819,500.0,-73.91981,138000.0,NY,2565 Flatbush Ave,11234,2138755256
3.0,3.0,New York,FOR_SALE,CONDO,40.754032,0.0,-73.96516,550000.0,NY,420 E 51st St APT 8D,10022,244827334
3.0,3.0,New York,FOR_SALE,SINGLE_FAMILY,40.735176,2280.0,-74.00339,7500000.0,NY,256 W 4th St,10014,31500842
5.0,4.0,Street,FOR_SALE,CONDO,40.725647,3905.0,-74.006966,13000000.0,NY,286 Spring Street #PENTHOUSE,10013,2089534694
2.0,3.0,Forest Hills,FOR_SALE,SINGLE_FAMILY,40.711582,1884.0,-73.85055,1250000.0,NY,93-01 71st Avenue,11375,32003955
4.0,6.0,Douglaston,FOR_SALE,SINGLE_FAMILY,40.782146,3622.0,-73.751274,3799000.0,NY,1120 Shore Road,11363,32092481
3.0,6.0,Long Island City,FOR_SALE,MULTI_FAMILY,40.77823,1728.0,-73.91087,1299000.0,NY,2137 28th St,11105,31946287
2.0,2.0,Jackson Heights,FOR_SALE,CONDO,,900.0,,368000.0,NY,33-07 91 Street #2A,11372,450349548
7.0,5.0,Malba,FOR_SALE,SINGLE_FAMILY,40.795444,8300.0,-73.827805,6998888.0,NY,117 Malba Drive,11357,32025781
1.0,1.0,Brooklyn,FOR_SALE,CONDO,40.70003,650.0,-73.999016,204950.0,NY,2913 Foster Ave APT 2F,11210,245021411
3.0,6.0,Brooklyn,FOR_SALE,MULTI_FAMILY,40.630238,2394.0,-73.908554,910000.0,NY,8 Paerdegat 6th Street,11236,450779419
7.0,6.0,New York,FOR_SALE,TOWNHOUSE,40.73469,8500.0,-73.98398,13995000.0,NY,243 E 17th St APT 1,10003,451010911
2.0,3.0,Staten Island,FOR_SALE,MULTI_FAMILY,40.550983,2444.0,-74.17385,959000.0,NY,166 Augusta Ave,10312,32357094
5.0,3.0,New York,FOR_SALE,CONDO,40.73208,4287.0,-74.00993,19850000.0,NY,150 Barrow St,10014,2055545804
1.0,1.0,Bronx,FOR_SALE,CONDO,40.864647,900.0,-73.90821,150000.0,NY,3 Fordham Hill Oval #3D,10468,215949461
2.0,2.0,Brooklyn,FOR_SALE,MULTI_FAMILY,40.6869,0.0,-73.9985,1775000.0,NY,157 Kane St APT 3,11231,79728057
4.0,5.0,Staten Island,FOR_SALE,SINGLE_FAMILY,40.571404,3360.0,-74.13502,1549000.0,NY,146 Ardsley St,10306,32339504
2.0,3.0,Staten Island,FOR_SALE,TOWNHOUSE,40.54745,1332.0,-74.21388,500000.0,NY,101 Redwood Loop,10309,32371505
4.0,5.0,South Ozone Park,FOR_SALE,SINGLE_FAMILY,40.678074,0.0,-73.8209,520000.0,NY,114-15 118street,11420,450159621
4.0,4.0,Bronx,FOR_SALE,MULTI_FAMILY,40.891563,1800.0,-73.85738,825000.0,NY,720 E 231st Street,10466,29832222
2.0,7.0,Brooklyn,FOR_SALE,MULTI_FAMILY,40.63362,0.0,-73.95523,1499000.0,NY,680 E 23rd St,11210,30670089
6.0,5.0,New York,FOR_SALE,CONDO,40.76954,6189.0,-73.967476,35000000.0,NY,11 E 68th St,10065,121192535
2.0,3.0,Brooklyn,FOR_SALE,CONDO,40.610943,1250.0,-73.96088,424998.0,NY,1580 E 13th St APT 5C,11230,245022440
3.0,3.0,New York,FOR_SALE,CONDO,40.7643,1950.0,-73.9725,950000.0,NY,781 5th Ave #613-616,10022,2067535824
1.0,2.0,New York,FOR_SALE,CONDO,40.76308,975.0,-73.96232,399999.0,NY,301 E 63rd St APT 14J,10065,72529095
4.0,4.0,Brooklyn,FOR_SALE,SINGLE_FAMILY,40.615845,3100.0,-73.98531,1495888.0,NY,2028 65th St,11204,142940689
1.0,2.0,Astoria,FOR_SALE,CONDO,40.763622,890.0,-73.935104,489000.0,NY,33-65 14th St #5D,11106,448042245
4.0,4.0,Forest Hills Gardens,FOR_SALE,SINGLE_FAMILY,40.71879,0.0,-73.84639,2248000.0,NY,30 Tennis Pl,11375,32004210
2.0,2.0,Brooklyn,FOR_SALE,CONDO,40.677265,1200.0,-73.97014,1450000.0,NY,225 Park Pl #2GH,11238,244502304
3.0,3.0,Brooklyn,FOR_SALE,MULTI_FAMILY,40.68357,2038.0,-73.985886,2300000.0,NY,457 Warren St,11217,30571427
4.0,8.0,Brooklyn,FOR_SALE,MULTI_FAMILY,40.682514,3250.0,-73.88175,1200000.0,NY,120 Highland Place,11208,30637573
2.0,3.0,Bronx,FOR_SALE,SINGLE_FAMILY,40.873093,1368.0,-73.83673,620000.0,NY,3057 Grace Avenue,10469,29831010
1.0,2.0,Astoria,FOR_SALE,CONDO,40.776,700.0,-73.9081,280000.0,NY,21-15 33 Street #4G,11105,2062969777
1.0,1.0,Brooklyn,FOR_SALE,CONDO,40.655533,0.0,-73.93793,199999.0,NY,10 E 43rd St APT 4K,11203,245013549
2.0,3.0,New York,FOR_SALE,CONDO,40.763935,1689.0,-73.96417,650000.0,NY,205 E 63rd St APT 9B,10065,442728661
2.0,3.0,Brooklyn,FOR_SALE,CONDO,40.68407,0.0,-73.99558,1650000.0,NY,275 De Graw St #A,11231,450895294
5.0,5.0,Maspeth,FOR_SALE,MULTI_FAMILY,40.723663,2100.0,-73.90107,1300000.0,NY,64-20 Perry Ave #1,11378,450865224
1.0,3.0,Bronx,FOR_SALE,SINGLE_FAMILY,40.81642,1344.0,-73.810455,619000.0,NY,3038 Harding Avenue,10465,29846802
2.0,2.0,Forest Hills,FOR_SALE,CONDO,40.721783,0.0,-73.85539,498000.0,NY,67-30 Clyde St APT 5C,11375,79736593
3.0,4.0,Staten Island,FOR_SALE,SINGLE_FAMILY,40.5775,1856.0,-74.11811,659000.0,NY,2341 Richmond Rd,10306,32295468
2.0,2.0,New York,FOR_SALE,CONDO,40.788605,0.0,-73.97012,700000.0,NY,609 Columbus Ave APT 4A,10024,244762794
3.0,4.0,Jamaica,FOR_SALE,SINGLE_FAMILY,40.718563,2000.0,-73.7766,1600000.0,NY,87-02 Chevy Chase St,11432,32136083
4.0,7.0,Brooklyn,FOR_SALE,MULTI_FAMILY,40.63535,3234.0,-73.96943,1850000.0,NY,546 E 9th St #1,11218,451007107
2.0,3.0,Staten Island,FOR_SALE,CONDO,40.620113,1800.0,-74.10983,350000.0,NY,1000 Clove Rd APT 6P,10301,217911348
3.0,3.0,Brooklyn,FOR_SALE,SINGLE_FAMILY,40.596546,1500.0,-73.93077,799000.0,NY,209 Allen Ave,11229,30793241
2.0,3.0,Bronx,FOR_SALE,SINGLE_FAMILY,40.84279,2164.0,-73.78564,699000.0,NY,92 Earley Street,10464,29850235
8.0,6.0,New York,FOR_SALE,SINGLE_FAMILY,40.73797,6000.0,-74.00735,30000000.0,NY,84 Jane St,10014,31501878
2.0,7.0,Bronx,FOR_SALE,SINGLE_FAMILY,40.831112,2016.0,-73.86685,350000.0,NY,1242 Saint Lawrence Avenue,10472,29795393
3.0,4.0,Bronx,FOR_SALE,MULTI_FAMILY,40.81999,1944.0,-73.81552,828000.0,NY,309 Hollywood Avenue,10465,29845366
1.0,1.0,Brooklyn,FOR_SALE,CONDO,40.673134,0.0,-73.982666,650000.0,NY,301 5th Ave APT 1F,11215,79727017
5.0,3.0,New York,FOR_SALE,TOWNHOUSE,40.768955,3000.0,-73.95328,2695000.0,NY,434 1/2 E 75th St,10021,31539224
2.0,2.0,Staten Island,FOR_SALE,CONDO,40.63809,1250.0,-74.07424,539000.0,NY,10 Bay Street Landing #1A,10301,217911630
4.0,3.0,New York,FOR_SALE,CONDO,40.771397,2192.0,-73.959,6330000.0,NY,200 E 75th St #11B,10021,446402938
8.0,8.0,Brooklyn,FOR_SALE,SINGLE_FAMILY,40.71902,6612.0,-73.957695,2395000.0,NY,139 N 8th St #TOWNHOUSE 1,11249,450808796
1.0,2.0,New York,FOR_SALE,CONDO,40.736313,815.0,-74.00809,1995000.0,NY,131 Bank St APT 2,10014,65322297
1.0,3.0,Queens,FOR_SALE,CONDO,40.77464,1100.0,-73.82683,458000.0,NY,25-40 Union Street #6B,11354,79512865
2.0,3.0,Bronx,FOR_SALE,SINGLE_FAMILY,40.865055,1762.0,-73.85169,450000.0,NY,2572 Pearsall Avenue,10469,29821435
2.0,4.0,Brooklyn,FOR_SALE,MULTI_FAMILY,40.68034,1440.0,-73.91193,999999.0,NY,231 Macdougal St,11233,30600708
1.0,1.0,Bronx,FOR_SALE,CONDO,40.83647,850.0,-73.92429,89000.0,NY,1177 Anderson Avenue #2D,10452,215948651
2.0,2.0,Bronx,FOR_SALE,SINGLE_FAMILY,40.87845,996.0,-73.84053,565000.0,NY,3399 Ely Avenue,10469,29833934
2.0,3.0,Brooklyn,FOR_SALE,SINGLE_FAMILY,40.61361,1664.0,-73.94146,858000.0,NY,1623 E 31st St,11234,30756795
3.0,3.0,Staten Island,FOR_SALE,SINGLE_FAMILY,40.628376,1260.0,-74.13281,399999.0,NY,21 Dryden Ct,10302,32296446
1.0,3.0,Whitestone,FOR_SALE,CONDO,40.79285,1144.0,-73.798386,450000.0,NY,162-40 9th Ave #3B,11357,2076389105
7.0,6.0,New York,FOR_SALE,CONDO,40.786514,6205.0,-73.9763,28750000.0,NY,211 W 84th St UNIT PHB,10024,444366330
1.0,2.0,Brooklyn,FOR_SALE,CONDO,40.71815,0.0,-73.94933,479000.0,NY,72 Richardson St APT 4,11211,450790386
14.0,5.0,New York,FOR_SALE,SINGLE_FAMILY,40.77404,17000.0,-73.96308,50000000.0,NY,38 E 76th St,10021,350519309
2.0,2.0,Brooklyn,FOR_SALE,CONDO,40.612537,1150.0,-74.03587,599999.0,NY,9951 Shore Rd APT 1B,11209,2054076307
3.0,6.0,Flushing,FOR_SALE,SINGLE_FAMILY,40.748714,1636.0,-73.829994,1599000.0,NY,5612 135th Street,11355,32040172
3.0,3.0,Staten Island,FOR_SALE,SINGLE_FAMILY,40.618603,1755.0,-74.1298,799999.0,NY,171 Keiber Ct,10314,32281678
1.0,1.0,New York,FOR_SALE,CONDO,40.7339,0.0,-74.00398,515000.0,NY,204 W 10th St APT 7,10014,244846601
1.0,2.0,Bronx,FOR_SALE,CONDO,40.825047,0.0,-73.80949,55000.0,NY,147 Edgewater Park #D,10465,2070299744
1.0,1.0,New York,FOR_SALE,CONDO,40.76686,600.0,-73.98859,369000.0,NY,433 W 54th St APT 1,10019,244716093
1.0,2.0,Bronx,FOR_SALE,CONDO,40.825047,0.0,-73.80949,55000.0,NY,147 Edgewater Park #D,10465,2070299744
1.0,1.0,New York,FOR_SALE,CONDO,40.76686,600.0,-73.98859,369000.0,NY,433 W 54th St APT 1,10019,244716093
3.0,2.0,Brooklyn,FOR_SALE,CONDO,40.666634,1113.0,-73.991005,1350000.0,NY,155 15th St APT 3C,11215,115876577
2.0,2.0,New York,FOR_SALE,CONDO,40.761642,1200.0,-73.97012,500000.0,NY,465 Park Ave APT 6E,10022,244881756
1.0,2.0,New York,FOR_SALE,CONDO,40.86167,604.0,-73.92663,125000.0,NY,21 Arden St APT 5A,10040,2054303228
2.0,3.0,New York,FOR_SALE,CONDO,40.798687,1500.0,-73.95976,1849000.0,NY,467 Central Park W #13A,10025,2077955472
5.0,4.0,Staten Island,FOR_SALE,MULTI_FAMILY,40.503822,5460.0,-74.24388,1999999.0,NY,261 Chelsea St,10307,32375992
4.0,3.0,Staten Island,FOR_SALE,SINGLE_FAMILY,40.541607,1870.0,-74.17512,750000.0,NY,49 Endview St,10312,64490099
4.0,4.0,Cambria Heights,FOR_SALE,SINGLE_FAMILY,40.698,1080.0,-73.73527,603000.0,NY,115-47 223RD,11411,2078813931
4.0,4.0,Brooklyn,FOR_SALE,SINGLE_FAMILY,40.615845,3100.0,-73.98531,1495888.0,NY,2028 65th St #1,11204,450888275
2.0,2.0,Long Island City,FOR_SALE,CONDO,40.7442,1003.0,-73.95684,775000.0,NY,4-74 48th Ave UNIT PH4E,11101,444374155
3.0,3.0,Brooklyn,FOR_SALE,SINGLE_FAMILY,40.662457,1700.0,-73.90533,649000.0,NY,664 Mother Gaston Blvd,11212,30632935
1.0,3.0,Howard Beach,FOR_SALE,CONDO,40.66383,0.0,-73.849106,319000.0,NY,155-31 84th St #4L,11414,449651238
2.0,3.0,Flushing,FOR_SALE,SINGLE_FAMILY,40.751057,1800.0,-73.79455,848888.0,NY,171-02 Courtney Avenue,11358,32050684
2.0,3.0,Jamaica,FOR_SALE,SINGLE_FAMILY,40.67725,1500.0,-73.79556,475000.0,NY,11934 145th Street,11436,32182607
1.0,3.0,Bayside,FOR_SALE,CONDO,40.781338,0.0,-73.78225,348000.0,NY,18-70 211th St APT 5K,11360,448293439
9.0,8.0,New York,FOR_SALE,TOWNHOUSE,40.782234,12000.0,-73.98467,55000000.0,NY,25 Riverside Dr,10023,143131834
2.0,3.0,Bronx,FOR_SALE,CONDO,40.88042,1144.0,-73.83612,320000.0,NY,3410 De Reimer Avenue #12D,10475,125930700
1.0,2.0,Flushing,FOR_SALE,CONDO,40.775166,950.0,-73.82634,280000.0,NY,25-18 Union Street #3G,11354,450523014
1.0,2.0,New York,FOR_SALE,CONDO,40.79899,657.0,-73.95102,229000.0,NY,50 W 112th St APT 4I,10026,244714875
,,Jamaica,FOR_SALE,MULTI_FAMILY,40.683506,,-73.85835,450000.0,NY,95-16 82nd street,11416,32111462
1.0,2.0,Brooklyn,FOR_SALE,CONDO,40.597134,927.0,-73.93528,212000.0,NY,2285 Bragg St APT 6B,11229,448466365
1.0,1.0,New York,FOR_SALE,CONDO,40.790462,0.0,-73.97813,675000.0,NY,322 W 88th St APT B,10024,244832429
4.0,8.0,Jamaica,FOR_SALE,MULTI_FAMILY,40.6946,2831.0,-73.83252,1188000.0,NY,114-12 91 Avenue,11418,32119605
1.0,2.0,Flushing,FOR_SALE,CONDO,40.764984,950.0,-73.74448,339000.0,NY,241-20 Northern Boulevard #6E,11362,121817694
5.0,4.0,New York,FOR_SALE,MULTI_FAMILY,40.804146,4740.0,-73.95007,1100000.0,NY,131 W 118th St,10026,31551652
1.0,1.0,Brooklyn,FOR_SALE,CONDO,40.700024,0.0,-73.9933,575000.0,NY,55 Hicks St APT 2,11201,245053517
2.0,2.0,East Elmhurst,FOR_SALE,CONDO,40.75873,821.0,-73.8639,535000.0,NY,32-58 105th Street #5C,11369,2061021815
2.0,2.0,Staten Island,FOR_SALE,SINGLE_FAMILY,40.631298,720.0,-74.16144,425000.0,NY,233 Lockman Ave,10303,32300519
2.0,4.0,Flushing,FOR_SALE,MULTI_FAMILY,40.787006,1296.0,-73.844124,925000.0,NY,123-13 13th Ave,11356,32021940
5.0,6.0,Brooklyn,FOR_SALE,MULTI_FAMILY,40.614853,2550.0,-74.02607,1799000.0,NY,205 Dahlgren Pl,11228,30702444
1.0,0.0,New York,FOR_SALE,CONDO,40.73852,0.0,-73.99687,395000.0,NY,113 W 15th St #1E,10011,244842642
1.0,1.0,New York,FOR_SALE,CONDO,40.792217,515.0,-73.96529,275000.0,NY,7 W 96th St #A,10025,448171780
3.0,4.0,Woodhaven,FOR_SALE,MULTI_FAMILY,40.686,1600.0,-73.8636,888880.0,NY,91-08 77th St #2,11421,450245879
2.0,3.0,Jamaica,FOR_SALE,SINGLE_FAMILY,40.695885,1648.0,-73.86022,729888.0,NY,84-54 85 Avenue,11421,32106066
2.0,3.0,Flushing,FOR_SALE,SINGLE_FAMILY,40.75405,1336.0,-73.80136,998000.0,NY,45-74 166th Street,11358,32048054
2.0,9.0,Brooklyn,FOR_SALE,MULTI_FAMILY,40.642914,3343.0,-73.96154,1800000.0,NY,335 E 18th St,11226,30667539
1.0,0.0,New York,FOR_SALE,CONDO,40.77183,0.0,-73.9807,225000.0,NY,25 W 64th St APT 2-F,10023,244827775
1.0,3.0,Flushing,FOR_SALE,CONDO,40.77431,1132.0,-73.825356,379000.0,NY,142-20 26th Ave APT 5H,11354,450779195
1.0,1.0,New York,FOR_SALE,SINGLE_FAMILY,40.786835,0.0,-73.94988,515000.0,NY,1513 Lexington Ave APT 4S,10029,441149607
2.0,5.0,Jamaica,FOR_SALE,SINGLE_FAMILY,40.706135,1549.0,-73.75419,350000.0,NY,10967 203rd St,11412,32156212
2.0,3.0,Brooklyn,FOR_SALE,SINGLE_FAMILY,40.66269,1116.0,-73.917046,550000.0,NY,242 Legion St,11212,30632641
1.0,2.0,Brooklyn,FOR_SALE,CONDO,40.7074,0.0,-73.9635,450000.0,NY,108 Division Ave APT 9,11211,2087290928
2.0,3.0,Flushing,FOR_SALE,SINGLE_FAMILY,40.771313,1128.0,-73.73287,799000.0,NY,46-18 Glenwood Street,11362,32095985
1.0,1.0,Jackson Heights,FOR_SALE,CONDO,40.753643,,-73.88447,150000.0,NY,82-16 34 Avenue #3E,11372,2080384566
3.0,3.0,Flushing,FOR_SALE,SINGLE_FAMILY,40.72839,1000.0,-73.89761,899999.0,NY,66-39 Jay Avenue,11378,31982370
9.0,9.0,Brooklyn,FOR_SALE,TOWNHOUSE,40.693638,0.0,-73.99678,2499999.0,NY,260 Hicks Street,11201,2054252491
4.0,4.0,Staten Island,FOR_SALE,MULTI_FAMILY,40.550316,3000.0,-74.14341,1299900.0,NY,65 Highland Rd,10308,32345924
1.0,3.0,Bronx,FOR_SALE,CONDO,40.879417,1000.0,-73.91768,232029.0,NY,60 Knolls Cres APT 10D,10463,244426908
3.0,4.0,Jamaica,FOR_SALE,SINGLE_FAMILY,40.72552,1400.0,-73.75027,849000.0,NY,88-32 Vanderveer Street,11427,32150868
9.0,6.0,New York,FOR_SALE,TOWNHOUSE,40.785095,8000.0,-73.97158,21750000.0,NY,48 W 85th St APT 1,10024,2111912114
1.0,1.0,Bronx,FOR_SALE,CONDO,40.8165,566.0,-73.88736,75000.0,NY,1290 Lafayette Ave APT 5F,10474,447957939
2.0,3.0,Staten Island,FOR_SALE,SINGLE_FAMILY,40.64412,1660.0,-74.0886,539000.0,NY,150 Northview Court,10301,58576960
1.0,2.0,Brooklyn,FOR_SALE,CONDO,40.631058,1400.0,-73.8872,1.0,NY,9536 Schenck St #3,11236,79710230
2.0,2.0,Jamaica,FOR_SALE,SINGLE_FAMILY,40.723915,1024.0,-73.73267,699000.0,NY,22228 Fairbury Avenue,11428,32152395
2.0,3.0,Flushing,FOR_SALE,SINGLE_FAMILY,40.795216,1460.0,-73.81669,920000.0,NY,620 150th Street,11357,32027193
2.0,1.0,Long Island City,FOR_SALE,CONDO,,,,150000.0,NY,40 Leonor #A-5,11109,450047239
2.0,2.0,New York,FOR_SALE,CONDO,40.774414,0.0,-73.95834,1000000.0,NY,170 E 79th St,10075,72528459
3.0,7.0,Bronx,FOR_SALE,MULTI_FAMILY,40.84777,2852.0,-73.862595,925000.0,NY,1859 Matthews Avenue,10462,29813472
1.0,2.0,Queens,FOR_SALE,CONDO,40.77472,800.0,-73.82521,298000.0,NY,142-21 26th Ave #1D,11354,295509242
3.0,2.0,Flushing,FOR_SALE,SINGLE_FAMILY,40.745415,2500.0,-73.82458,1299999.0,NY,57-23 141st St,11355,450899450
5.0,4.0,Brooklyn,FOR_SALE,SINGLE_FAMILY,40.68514,3243.0,-73.951515,2849000.0,NY,196 Monroe St,11216,30609272
7.0,6.0,Brooklyn,FOR_SALE,SINGLE_FAMILY,40.692387,9070.0,-73.99722,16995000.0,NY,299 Hicks St #THA,11201,443843302
1.0,2.0,Brooklyn,FOR_SALE,CONDO,40.685394,0.0,-73.982315,625000.0,NY,467 Pacific St APT 1,11217,245022720
6.0,5.0,Bayside,FOR_SALE,SINGLE_FAMILY,40.74912,,-73.76037,1850000.0,NY,58-28 218th Street,11364,443152530
2.0,3.0,Staten Island,FOR_SALE,SINGLE_FAMILY,40.566082,1118.0,-74.115814,760000.0,NY,205 Cannon Blvd,10306,32337315
2.0,5.0,Staten Island,FOR_SALE,SINGLE_FAMILY,40.543705,2080.0,-74.1846,1100000.0,NY,264 Rathbun Ave,10312,32365000
1.0,1.0,New York,FOR_SALE,CONDO,40.777565,750.0,-73.98287,325000.0,NY,201 W 70th St APT 5D,10023,72521264
2.0,3.0,Flushing,FOR_SALE,CONDO,40.766773,1200.0,-73.826035,418888.0,NY,140-39 34th Ave #5K,11354,443635320
1.0,2.0,Flushing,FOR_SALE,CONDO,40.720013,850.0,-73.836075,419000.0,NY,72-81 113th Streets #3V,11375,219854881
4.0,7.0,Brooklyn,FOR_SALE,MULTI_FAMILY,40.618492,3409.0,-74.005005,1299000.0,NY,1414 Bay Ridge Pkwy,11228,30706013
4.0,8.0,Brooklyn,FOR_SALE,TOWNHOUSE,40.6767,3580.0,-73.97632,2250000.0,NY,103 Lincoln Pl,11217,30582568
3.0,6.0,Far Rockaway,FOR_SALE,SINGLE_FAMILY,40.60013,,-73.77501,350000.0,NY,538 Beach 43rd Street,11691,32224051
2.0,6.0,Brooklyn,FOR_SALE,MULTI_FAMILY,40.68679,3600.0,-73.95412,1949900.0,NY,173 Quincy Street,11216,30608662
4.0,6.0,Flushing,FOR_SALE,MULTI_FAMILY,40.71301,2240.0,-73.9109,1980000.0,NY,5368 Metropolitan Avenue,11385,32006751
1.0,1.0,New York,FOR_SALE,CONDO,40.708794,800.0,-74.009544,475000.0,NY,55 Liberty St SUITE 17C,10038,446893709
7.0,9.0,New York,FOR_SALE,TOWNHOUSE,40.787647,6395.0,-73.968346,6250000.0,NY,13 W 89th St,10024,450900448
1.0,0.0,New York,FOR_SALE,CONDO,40.80233,0.0,-73.95191,185000.0,NY,135 W 115th St APT 1E,10026,244886907
3.0,4.0,Bronx,FOR_SALE,MULTI_FAMILY,40.885612,2060.0,-73.90463,949900.0,NY,3607 Irwin Avenue,10463,29852258
1.0,2.0,Brooklyn,FOR_SALE,CONDO,40.647243,882.0,-74.005264,799000.0,NY,570 44th St APT 12,11220,245014858
2.0,4.0,Jamaica,FOR_SALE,SINGLE_FAMILY,40.69269,1200.0,-73.73097,699900.0,NY,11651 230th Street,11411,32166383
2.0,3.0,Staten Island,FOR_SALE,SINGLE_FAMILY,40.613167,1760.0,-74.13386,699999.0,NY,79 Byrne Ave,10314,32283419
1.0,2.0,Brooklyn,FOR_SALE,CONDO,40.647243,882.0,-74.005264,799000.0,NY,570 44th St APT 12,11220,245014858
2.0,4.0,Jamaica,FOR_SALE,SINGLE_FAMILY,40.69269,1200.0,-73.73097,699900.0,NY,11651 230th Street,11411,32166383
2.0,3.0,Staten Island,FOR_SALE,SINGLE_FAMILY,40.613167,1760.0,-74.13386,699999.0,NY,79 Byrne Ave,10314,32283419
2.0,1.0,Brooklyn,FOR_SALE,CONDO,40.733078,932.0,-73.95571,1199000.0,NY,149 Huron St APT 6H,11222,2122563361
3.0,3.0,Jamaica,FOR_SALE,SINGLE_FAMILY,40.68247,1835.0,-73.84971,728000.0,NY,10121 90th Street,11416,32113355
1.0,3.0,Staten Island,FOR_SALE,SINGLE_FAMILY,40.616043,1416.0,-74.08611,270000.0,NY,26 Metcalfe St,10304,32287687
3.0,3.0,Bayside,FOR_SALE,CONDO,40.783455,1500.0,-73.77478,599000.0,NY,215-29 23rd Avenue #4,11360,450143696
1.0,1.0,Jackson Heights,FOR_SALE,CONDO,40.755337,750.0,-73.875046,299000.0,NY,3344 93rd St APT 5X,11372,2121602217
2.0,3.0,Staten Island,FOR_SALE,SINGLE_FAMILY,40.592567,1344.0,-74.07727,659000.0,NY,240 Mallory Ave,10305,32325155
3.0,7.0,Bronx,FOR_SALE,MULTI_FAMILY,40.86424,2202.0,-73.85898,949000.0,NY,2543 Williamsbridge Road,10469,29820799
4.0,4.0,Staten Island,FOR_SALE,MULTI_FAMILY,40.62951,1974.0,-74.116165,799000.0,NY,481 Broadway,10310,32275832
2.0,2.0,Brooklyn,FOR_SALE,MULTI_FAMILY,40.68252,1167.0,-73.88117,579950.0,NY,117 Highland Place,11208,30637597
14.0,7.0,New York,FOR_SALE,TOWNHOUSE,40.78993,12375.0,-73.97962,29750000.0,NY,349 W 86th St,10024,31526581
4.0,8.0,Bronx,FOR_SALE,MULTI_FAMILY,40.818607,3218.0,-73.86542,950000.0,NY,1754 Seward Avenue,10473,29792286
4.0,3.0,New York,FOR_SALE,CONDO,40.7077,2309.0,-74.015,4940000.0,NY,50 West St APT 18B,10006,244782494
10.0,11.0,New York,FOR_SALE,TOWNHOUSE,40.76162,24000.0,-73.97619,49500000.0,NY,9 W 54th St,10019,2057926072
1.0,4.0,Arverne,FOR_SALE,SINGLE_FAMILY,40.594387,1600.0,-73.78919,320000.0,NY,360 Beach 59th Street #A Dock,11692,448676072
1.0,3.0,Hollis,FOR_SALE,SINGLE_FAMILY,40.7077,1376.0,-73.778854,550000.0,NY,181-10 93rd Avenue,11423,2066407112
2.0,3.0,Jamaica,FOR_SALE,SINGLE_FAMILY,40.68066,1063.0,-73.751396,630000.0,NY,21705 133rd Rd,11413,32201069
3.0,4.0,Jamaica,FOR_SALE,SINGLE_FAMILY,40.691513,1600.0,-73.81532,679000.0,NY,10147 131st Street,11419,32124579
3.0,3.0,Jamaica,FOR_SALE,SINGLE_FAMILY,40.679256,1392.0,-73.84674,729888.0,NY,105-28 92 Street,11417,32114957
2.0,4.0,Queens Village,FOR_SALE,SINGLE_FAMILY,40.70557,1280.0,-73.73928,327000.0,NY,218-20 112th Ave,11429,2079313732
3.0,3.0,Woodhaven,FOR_SALE,SINGLE_FAMILY,40.697044,1400.0,-73.84849,799000.0,NY,8563 98th St,11421,32115413
2.0,3.0,Maspeth,FOR_SALE,SINGLE_FAMILY,40.71811,1216.0,-73.90077,905000.0,NY,62-33 59th Drive,11378,450900076
2.0,3.0,Brooklyn,FOR_SALE,SINGLE_FAMILY,40.614582,1434.0,-73.93511,825000.0,NY,1733 E 37th St,11234,30757747
1.0,1.0,Bronx,FOR_SALE,CONDO,40.85118,850.0,-73.90071,115000.0,NY,2025 Valentine Avenue #3F,10457,215960085
4.0,3.0,Staten Island,FOR_SALE,SINGLE_FAMILY,40.528786,2250.0,-74.21963,798000.0,NY,86 Ambassador Ln,10309,59821058
1.0,2.0,Brooklyn,FOR_SALE,CONDO,40.683643,800.0,-74.00387,995000.0,NY,76 President St UNIT GARDEN,11231,450672732
,6.0,Bronx,FOR_SALE,MULTI_FAMILY,40.847797,2246.0,-73.85092,948888.0,NY,1643 Tomlinson Avenue,10461,29814607
2.0,2.0,Bronx,FOR_SALE,SINGLE_FAMILY,40.8099,1230.0,-73.80288,535000.0,NY,2 Schuyler Terrace,10465,29847505
1.0,2.0,Brooklyn,FOR_SALE,CONDO,40.667538,800.0,-73.960594,650000.0,NY,35 Crown St APT 1F,11225,99343189
1.0,2.0,Jackson Heights,FOR_SALE,CONDO,40.74853,0.0,-73.88205,475000.0,NY,37-51 84th St #31,11372,249766776
2.0,5.0,Staten Island,FOR_SALE,SINGLE_FAMILY,40.59549,2300.0,-74.07007,999900.0,NY,162 Sand Ln,10305,32325628
2.0,3.0,Staten Island,FOR_SALE,SINGLE_FAMILY,40.588272,1560.0,-74.15336,775000.0,NY,333 Travis Ave,10314,32312003
,,Flushing,FOR_SALE,MULTI_FAMILY,40.747562,1584.0,-73.75772,849900.0,NY,6136 220th Street,11364,32086849
2.0,3.0,Brooklyn,FOR_SALE,MULTI_FAMILY,40.604042,1785.0,-73.944244,938000.0,NY,1933 E 28th St,11229,30742579
3.0,5.0,Flushing,FOR_SALE,TOWNHOUSE,40.751804,0.0,-73.82942,1500000.0,NY,42-95 Crommelin Street,11355,451018275
2.0,2.0,New York,FOR_SALE,CONDO,40.78513,1077.0,-73.94797,960000.0,NY,215 E 96th St #25C,10128,321915199
10.0,6.0,New York,FOR_SALE,TOWNHOUSE,40.73258,9103.0,-73.99472,36500000.0,NY,17 E 9th St,10003,401990447
1.0,2.0,Flushing,FOR_SALE,TOWNHOUSE,40.7215,1000.0,-73.912766,498000.0,NY,57-26 57 Drive,11378,31986278
1.0,2.0,Staten Island,FOR_SALE,CONDO,40.60082,901.0,-74.132484,429000.0,NY,50 Bradley Court #52,10314,451028725
3.0,3.0,Bayside,FOR_SALE,CONDO,40.784637,2000.0,-73.77647,655000.0,NY,17-39 215th Street 215th Street #35,11360,444377632
6.0,5.0,New York,FOR_SALE,CONDO,40.7662,7074.0,-73.981,47900000.0,NY,217 W 57th St #110,10019,338594595
4.0,4.0,Brooklyn,FOR_SALE,MULTI_FAMILY,40.689655,2705.0,-73.93168,2100000.0,NY,696 Lexington Ave,11221,30603177
7.0,6.0,Flushing,FOR_SALE,MULTI_FAMILY,40.753635,5000.0,-73.81492,2800000.0,NY,146-15 Holly Avenue,11355,32042360
2.0,2.0,Corona,FOR_SALE,CONDO,40.738136,820.0,-73.8582,265000.0,NY,58-03 Calloway St #3NN,11368,79731509
2.0,4.0,Staten Island,FOR_SALE,SINGLE_FAMILY,40.5348,1400.0,-74.238014,799000.0,NY,60 Androvette St,10309,32374498
3.0,4.0,Flushing,FOR_SALE,SINGLE_FAMILY,40.76983,1451.0,-73.77895,999000.0,NY,20934 33rd Road,11361,32060278
1.0,3.0,Brooklyn,FOR_SALE,CONDO,40.5993,1050.0,-73.9333,205000.0,NY,2229 Knapp St APT 2A,11229,2061979122
3.0,3.0,Brooklyn,FOR_SALE,SINGLE_FAMILY,40.5923,2021.0,-73.952034,998000.0,NY,1804 Avenue X,11235,30747936
3.0,3.0,Whitestone,FOR_SALE,SINGLE_FAMILY,40.781956,1485.0,-73.81864,1388888.0,NY,19-11 147th St,11357,2081765435
7.0,10.0,Saint Albans,FOR_SALE,MULTI_FAMILY,40.70777,3600.0,-73.76201,1799999.0,NY,104-03 196  St,11412,2060251535
1.0,1.0,Howard Beach,FOR_SALE,CONDO,40.666096,800.0,-73.847145,175000.0,NY,153-25 88 Street #4N,11414,79732881
2.0,3.0,Brooklyn,FOR_SALE,SINGLE_FAMILY,40.6595,1116.0,-73.90162,375000.0,NY,592 Powell St,11212,30636133
1.0,3.0,Staten Island,FOR_SALE,MULTI_FAMILY,40.60166,2700.0,-74.09311,1195000.0,NY,1039 Richmond Rd,10304,119609702
2.0,3.0,Saint Albans,FOR_SALE,SINGLE_FAMILY,40.69407,1125.0,-73.74633,300000.0,NY,118-29 205th Street,11412,2056679033
2.0,4.0,New York,FOR_SALE,CONDO,40.7918,1700.0,-73.9407,1000000.0,NY,309 E 108th St,10029,121183777
6.0,6.0,Brooklyn,FOR_SALE,TOWNHOUSE,40.700375,6374.0,-73.99482,19950000.0,NY,11 Cranberry St,11201,30567284
3.0,4.0,Staten Island,FOR_SALE,MULTI_FAMILY,40.613354,2100.0,-74.16748,999999.0,NY,8 Nadal Pl,10314,32304159
8.0,18.0,Brooklyn,FOR_SALE,MULTI_FAMILY,40.630463,4400.0,-74.004906,4500000.0,NY,1068 62nd St,11219,30688832
2.0,6.0,Bronx,FOR_SALE,MULTI_FAMILY,40.82083,2680.0,-73.85256,820000.0,NY,2067 Seward Avenue,10473,29792817
1.0,2.0,Brooklyn,FOR_SALE,CONDO,40.66451,0.0,-73.97736,875000.0,NY,145 Prospect Park W APT 4D,11215,62646545
2.0,2.0,Brooklyn,FOR_SALE,SINGLE_FAMILY,40.63817,1100.0,-73.92511,0.0,NY,21 Preston Ct,11234,30766553
4.0,7.0,New York,FOR_SALE,SINGLE_FAMILY,40.813694,2248.0,-73.94642,1600000.0,NY,232 W 132nd St #232,10027,448165605
3.0,4.0,Staten Island,FOR_SALE,MULTI_FAMILY,40.537624,2808.0,-74.201866,1189000.0,NY,479 Ramona Ave,10309,32369615
1.0,2.0,Brooklyn,FOR_SALE,CONDO,40.58835,1000.0,-73.96244,380000.0,NY,2514 E 7th St APT 3B,11235,245067625
5.0,5.0,Staten Island,FOR_SALE,SINGLE_FAMILY,40.59892,4576.0,-74.111725,3295000.0,NY,563 Todt Hill Rd,10304,112111317
4.0,3.0,Brooklyn,FOR_SALE,MULTI_FAMILY,40.6675,2400.0,-73.9753,1500000.0,NY,60 15th Street,11215,30586120
1.0,2.0,Brooklyn,FOR_SALE,CONDO,40.58478,0.0,-73.93169,359000.0,NY,3235 Emmons Ave APT 602,11235,82829879
3.0,3.0,New York,FOR_SALE,CONDO,40.756153,0.0,-73.960884,1995000.0,NY,25 Sutton Pl S APT 8G,10022,244805592
3.0,4.0,Flushing,FOR_SALE,SINGLE_FAMILY,40.733093,1619.0,-73.896675,1200000.0,NY,6731 52nd Road,11378,31982766
3.0,3.0,New York,FOR_SALE,CONDO,40.76741,2100.0,-73.96824,995000.0,NY,27 E 65th St #5BC,10065,442232803
1.0,1.0,Forest Hills,FOR_SALE,CONDO,40.72139,0.0,-73.84492,350000.0,NY,107-40 Queens Blvd #5-H,11375,2056684116
3.0,3.0,Woodhaven,FOR_SALE,SINGLE_FAMILY,40.68878,1312.0,-73.851265,735000.0,NY,91-22 92nd St,11421,2062377429
2.0,2.0,New York,FOR_SALE,CONDO,40.79461,0.0,-73.96294,1699000.0,NY,407 Central Park W #PH7B,10025,450360981
3.0,5.0,Staten Island,FOR_SALE,SINGLE_FAMILY,40.541504,2480.0,-74.158585,1299000.0,NY,239 Sycamore St,10312,32347243
5.0,5.0,New York,FOR_SALE,CONDO,40.770916,0.0,-73.9615,15400000.0,NY,150 E 73rd St #PENTHOUSE,10021,450809432
1.0,2.0,Bayside,FOR_SALE,CONDO,40.765774,950.0,-73.78544,399000.0,NY,20117 35th Avenue #B,11361,80383482
3.0,5.0,Brooklyn,FOR_SALE,MULTI_FAMILY,,2756.0,,1550000.0,NY,490 Hancock St #1,11233,442916493
4.0,5.0,Brooklyn,FOR_SALE,SINGLE_FAMILY,40.700264,5568.0,-73.994576,14000000.0,NY,19 Cranberry St,11201,30567281
1.0,1.0,New York,FOR_SALE,CONDO,40.78187,750.0,-73.94633,585000.0,NY,345 E 93rd St APT 20A,10128,244855096
1.0,3.0,Bronx,FOR_SALE,SINGLE_FAMILY,40.85495,1744.0,-73.79081,415000.0,NY,616 City Island Avenue,10464,29850695
2.0,2.0,Staten Island,FOR_SALE,TOWNHOUSE,40.56358,1144.0,-74.104675,549900.0,NY,128 Milton Ave,10306,32334948
2.0,3.0,Jamaica,FOR_SALE,SINGLE_FAMILY,40.707733,1360.0,-73.77869,699000.0,NY,181-16 93rd Avenue,11423,32142357
1.0,1.0,Brooklyn,FOR_SALE,CONDO,40.615463,550.0,-73.94624,165000.0,NY,2807 Kings Hwy APT 5B,11210,245006189
3.0,4.0,Brooklyn,FOR_SALE,MULTI_FAMILY,40.6508,3000.0,-74.0072,1495000.0,NY,415 42nd St,11232,30574920
3.0,5.0,Brooklyn,FOR_SALE,MULTI_FAMILY,40.644352,1938.0,-73.90592,929000.0,NY,1040 E 94th Street,11236,30773621
4.0,5.0,Jamaica,FOR_SALE,MULTI_FAMILY,40.676296,1700.0,-73.747284,869999.0,NY,135-07 223rd Street,11413,68316431
2.0,2.0,Flushing,FOR_SALE,CONDO,40.767178,1100.0,-73.825386,675000.0,NY,140-55 34th Avenue #6H,11354,32037080
2.0,4.0,Bronx,FOR_SALE,MULTI_FAMILY,40.891315,2746.0,-73.84273,0.0,NY,4042 Baychester Ave,10466,29836055
8.0,6.0,Brooklyn,FOR_SALE,TOWNHOUSE,40.674927,4004.0,-73.98301,6250000.0,NY,38 Garfield Pl,11215,30583371
4.0,6.0,Flushing,FOR_SALE,MULTI_FAMILY,40.74178,3920.0,-73.8305,1780000.0,NY,135-19 62nd Avenue,11367,32064221
4.0,,Brooklyn,FOR_SALE,MULTI_FAMILY,40.637268,3090.0,-74.014465,1888000.0,NY,606 61st Street,11220,30690936
3.0,3.0,Flushing,FOR_SALE,SINGLE_FAMILY,40.77574,0.0,-73.80821,1280000.0,NY,154-32 24th Rd,11357,32034392
15.0,15.0,New York,FOR_SALE,SINGLE_FAMILY,40.715717,18740.0,-74.008415,24950000.0,NY,105 Reade St,10013,405529486
4.0,5.0,Brooklyn,FOR_SALE,MULTI_FAMILY,40.63137,2736.0,-73.889565,880000.0,NY,2109 Canarsie Rd,11236,30779909
3.0,2.0,Brooklyn,FOR_SALE,CONDO,40.720844,1319.0,-73.96062,1995000.0,NY,49 N 8th St,11249,2070454111
3.0,3.0,Flushing,FOR_SALE,MULTI_FAMILY,40.723103,0.0,-73.87028,1188000.0,NY,6324 84th Pl,11379,31996141
9.0,8.0,New York,FOR_SALE,SINGLE_FAMILY,40.737682,6200.0,-74.00361,15000000.0,NY,277 W 12th St #PENTHOUSE,10014,447005558
1.0,2.0,Bronx,FOR_SALE,SINGLE_FAMILY,40.839333,1078.0,-73.821045,600000.0,NY,3203 Parsifal Place,10465,29843334
3.0,4.0,Bronx,FOR_SALE,MULTI_FAMILY,40.86634,1706.0,-73.85982,685000.0,NY,2723 Colden Ave #1,10469,450380053
2.0,8.0,Staten Island,FOR_SALE,MULTI_FAMILY,40.633476,3040.0,-74.12022,799900.0,NY,25 Elizabeth St,10310,32276242
3.0,5.0,Flushing,FOR_SALE,MULTI_FAMILY,40.748947,2656.0,-73.76781,1400000.0,NY,5627 210th St,11364,32084787
1.0,2.0,Staten Island,FOR_SALE,SINGLE_FAMILY,40.53969,910.0,-74.15791,499000.0,NY,319 Winchester Ave,10312,32348007
4.0,5.0,Far Rockaway,FOR_SALE,SINGLE_FAMILY,40.608177,3637.0,-73.7502,899000.0,NY,12-99 Brunswick Avenue,11691,32219790
6.0,3.0,New York,FOR_SALE,TOWNHOUSE,40.730785,6850.0,-74.00743,21000000.0,NY,78 Morton St,10014,143090515
2.0,4.0,Queens Village,FOR_SALE,SINGLE_FAMILY,40.722878,,-73.738884,999888.0,NY,92-52 219th Street,11428,2056774155
1.0,1.0,Forest Hills,FOR_SALE,CONDO,40.727413,0.0,-73.846985,189000.0,NY,67-66 108th St UNIT A38,11375,439578864
2.0,2.0,Brooklyn,FOR_SALE,CONDO,40.654434,1010.0,-73.96144,699000.0,NY,353 Ocean Ave APT 6B,11226,30665542
3.0,3.0,Staten Island,FOR_SALE,SINGLE_FAMILY,40.58582,1806.0,-74.16078,748888.0,NY,67 Purdue St,10314,32313175
2.0,3.0,Bronx,FOR_SALE,CONDO,40.876198,1300.0,-73.86045,215000.0,NY,3531 Bronxwood Avenue #STJ,10467,450823453
1.0,2.0,Staten Island,FOR_SALE,SINGLE_FAMILY,40.635025,754.0,-74.16958,225000.0,NY,189 Pond Way #A,10303,450294002
1.0,3.0,Flushing,FOR_SALE,SINGLE_FAMILY,40.76378,1088.0,-73.78607,880000.0,NY,36-09 200 Street,11361,32060601
1.0,3.0,Staten Island,FOR_SALE,SINGLE_FAMILY,40.609886,1092.0,-74.13445,699000.0,NY,204 Byrne Ave,10314,32289930
6.0,6.0,Brooklyn,FOR_SALE,TOWNHOUSE,40.69028,10000.0,-73.966774,10350000.0,NY,280 Washington Ave,11205,30612247
2.0,4.0,Flushing,FOR_SALE,MULTI_FAMILY,40.739735,,-73.79674,1198800.0,NY,59-21 Fresh Meadow Lane,11365,32073569
1.0,1.0,Manhattan,FOR_SALE,CONDO,40.79473,0.0,-73.93507,164900.0,NY,424 E 115th St APT 3D,10029,441543099
2.0,2.0,Bayside,FOR_SALE,CONDO,40.785923,1200.0,-73.78571,888000.0,NY,"14-12 Michael Place 3rd Floor, 117U",11360,451015572
6.0,12.0,New York,FOR_SALE,SINGLE_FAMILY,40.730186,3800.0,-73.98818,5695000.0,NY,120 E 10th St,10003,2122753122
1.0,2.0,Brooklyn,FOR_SALE,CONDO,40.720665,0.0,-73.960335,619000.0,NY,65 N 8th St APT 11,11249,2130785073
3.0,6.0,Jamaica,FOR_SALE,SINGLE_FAMILY,40.69335,1726.0,-73.82157,675000.0,NY,9517 125th Street,11419,32123442
1.0,1.0,Rockaway Park,FOR_SALE,CONDO,40.5749,,-73.85032,395000.0,NY,125 Beach 124 St #6F,11694,2101966318
3.0,4.0,Flushing,FOR_SALE,SINGLE_FAMILY,40.734356,2268.0,-73.76438,1499000.0,NY,206-07 Richland Avenue,11364,32088526
1.0,4.0,New York,FOR_SALE,CONDO,40.804024,0.0,-73.96377,575000.0,NY,503 W 111th St APT 22,10025,244781947
2.0,6.0,South Ozone Park,FOR_SALE,SINGLE_FAMILY,40.674824,0.0,-73.81303,499000.0,NY,117-18 125th St,11420,2056786582
5.0,3.0,New York,FOR_SALE,CONDO,40.720978,6814.0,-74.00244,39995000.0,NY,20 Greene St #PENTHOUSE,10013,443948051
1.0,2.0,Brooklyn,FOR_SALE,CONDO,40.62981,900.0,-73.92751,280000.0,NY,1270 E 51 Street #6A,11234,245020022
3.0,5.0,Far Rockaway,FOR_SALE,MULTI_FAMILY,40.574703,3307.0,-73.84759,1549000.0,NY,161 Beach 129th Street,11694,32227161
4.0,4.0,Staten Island,FOR_SALE,SINGLE_FAMILY,40.569283,2690.0,-74.14426,1249000.0,NY,394 Clarke,10306,2087054095
3.0,6.0,Jamaica,FOR_SALE,MULTI_FAMILY,40.691612,1750.0,-73.79558,725000.0,NY,109-30 155th St,11433,32184914
2.0,2.0,Brooklyn,FOR_SALE,MULTI_FAMILY,40.630848,0.0,-74.021164,999000.0,NY,523 73rd St,11209,30694211
2.0,3.0,Brooklyn,FOR_SALE,SINGLE_FAMILY,40.61446,1190.0,-73.93825,675000.0,NY,1664 E 35th St,11234,30756976
6.0,6.0,Whitestone,FOR_SALE,MULTI_FAMILY,40.782,2670.0,-73.815575,1980000.0,NY,149-32 19th Ave #1,11357,450897200
5.0,5.0,Brooklyn,FOR_SALE,CONDO,40.7022,4928.0,-73.99084,19500000.0,NY,30 Front St,11201,2055546088
1.0,3.0,Queens,FOR_SALE,CONDO,40.791786,1300.0,-73.79672,420000.0,NY,167-05 12 Ave Ave. #4B,11357,333728984
1.0,2.0,Jamaica,FOR_SALE,CONDO,40.679756,894.0,-73.86275,236000.0,NY,97-52 75th Street #A1,11416,32112101
4.0,8.0,Bronx,FOR_SALE,MULTI_FAMILY,40.866116,4127.0,-73.90375,1500000.0,NY,2510 Webb Ave,10468,29786527
2.0,2.0,Queens,FOR_SALE,CONDO,40.794216,1600.0,-73.79675,500000.0,NY,166-25 Powells Cove Boulevard #10G,11357,79739713
1.0,2.0,Brooklyn,FOR_SALE,CONDO,40.614727,820.0,-74.03341,345000.0,NY,325 Marine Ave APT C3,11209,245024494
1.0,3.0,New York,FOR_SALE,CONDO,40.806496,0.0,-73.93867,265000.0,NY,78 E 127th St APT 19,10035,2056751551
3.0,3.0,Ozone Park,FOR_SALE,SINGLE_FAMILY,40.67328,1216.0,-73.85173,825000.0,NY,133-25 84th Street,11417,346876298
2.0,4.0,Flushing,FOR_SALE,MULTI_FAMILY,40.757065,1640.0,-73.785866,1298880.0,NY,43-28 196 Street,11358,32049171
2.0,3.0,Bronx,FOR_SALE,SINGLE_FAMILY,40.828354,1973.0,-73.82034,665000.0,NY,729 Hollywood Avenue,10465,29845061
1.0,1.0,New York,FOR_SALE,SINGLE_FAMILY,40.71271,1046.0,-73.99553,795000.0,NY,50 Henry St APT 7B,10002,31495402
2.0,3.0,Flushing,FOR_SALE,SINGLE_FAMILY,40.718582,1332.0,-73.891685,868000.0,NY,6811 61st Road,11379,143419926
3.0,3.0,Forest Hills,FOR_SALE,CONDO,40.73273,2285.0,-73.84445,660000.0,NY,65-06 Grand Central Parkway,11375,450200096
1.0,2.0,Brooklyn,FOR_SALE,CONDO,40.60028,840.0,-74.00832,324999.0,NY,1333 Shore Pkwy FLOOR 1,11214,449850696
1.0,0.0,Jamaica,FOR_SALE,CONDO,40.705524,600.0,-73.80109,135000.0,NY,89-15 Parsons Boulevard #2A,11432,245446514
2.0,2.0,Howard Beach,FOR_SALE,CONDO,40.667625,1130.0,-73.84778,345000.0,NY,151-40 88 Street #1G,11414,124719635
6.0,6.0,Whitestone,FOR_SALE,MULTI_FAMILY,40.7819,,-73.815605,1980000.0,NY,149-32 19th ave,11357,2058367004
2.0,3.0,Jamaica,FOR_SALE,SINGLE_FAMILY,40.690453,1283.0,-73.732765,779900.0,NY,118-18 230 Street,11411,32197003
6.0,7.0,New York,FOR_SALE,MULTI_FAMILY,40.815525,3700.0,-73.94154,1999000.0,NY,133 W 136th St,10030,245083805
1.0,0.0,Brooklyn,FOR_SALE,CONDO,40.677692,0.0,-73.973816,450000.0,NY,144 Park Pl #3,11217,79727995
1.0,2.0,Forest Hills,FOR_SALE,CONDO,40.72983,0.0,-73.8502,450000.0,NY,65-45 Yellowstone Blvd #6E,11375,2078881441
2.0,2.0,Jackson Heights,FOR_SALE,CONDO,40.75492,1200.0,-73.87656,360000.0,NY,33-47 91st. Street #3H,11372,448730207
1.0,2.0,Fresh Meadows,FOR_SALE,CONDO,40.737812,700.0,-73.77904,339000.0,NY,196-65 69TH Avenue 1 FL,11365,2063636941
3.0,7.0,Fresh Meadows,FOR_SALE,MULTI_FAMILY,,1828.0,,1458000.0,NY,61-12 160th St,11365,2058237985
3.0,5.0,Jamaica,FOR_SALE,SINGLE_FAMILY,40.695934,1424.0,-73.77929,849000.0,NY,11046 174th Street,11433,32141347
1.0,2.0,Brooklyn,FOR_SALE,CONDO,40.639748,0.0,-74.01863,299000.0,NY,414 61st St APT 4A,11220,2088421001
1.0,1.0,Brooklyn,FOR_SALE,CONDO,40.71398,937.0,-73.92903,599000.0,NY,1196 Metropolitan Ave #1B,11237,2055535661
1.0,2.0,Far Rockaway,FOR_SALE,CONDO,40.589703,950.0,-73.80682,374998.0,NY,260 Beach 81st Street #5T,11693,450632963
2.0,3.0,Brooklyn,FOR_SALE,SINGLE_FAMILY,40.594097,1785.0,-73.92753,598000.0,NY,57 Aster Ct,11229,30794580
1.0,2.0,Bellerose,FOR_SALE,TOWNHOUSE,40.751,900.0,-73.723625,360000.0,NY,251-47 71st Road #57A,11426,300372383
2.0,3.0,Bronx,FOR_SALE,SINGLE_FAMILY,40.83746,1710.0,-73.82977,590000.0,NY,1282 Edison Avenue,10461,29841365
2.0,3.0,Staten Island,FOR_SALE,TOWNHOUSE,40.61613,840.0,-74.07232,550000.0,NY,111 Chestnut Ave,10305,32318540
1.0,2.0,Bronx,FOR_SALE,CONDO,40.864838,851.0,-73.886475,179000.0,NY,2830 Briggs Avenue #3F,10458,244442982
3.0,4.0,Bronx,FOR_SALE,MULTI_FAMILY,40.82391,1944.0,-73.84574,625000.0,NY,2303 Lafayette Avenue,10473,29794133
2.0,3.0,Flushing,FOR_SALE,CONDO,40.722153,1500.0,-73.84926,888000.0,NY,7025 Yellowstone Blvd APT 18C,11375,245446981
3.0,4.0,Staten Island,FOR_SALE,SINGLE_FAMILY,40.562622,2288.0,-74.17676,859999.0,NY,18 Futurity Pl,10312,32357809
1.0,2.0,New York,FOR_SALE,CONDO,40.799778,0.0,-73.961464,625000.0,NY,65 W 107th St APT 4D,10025,89332255
1.0,2.0,Astoria,FOR_SALE,CONDO,40.77575,0.0,-73.90802,387000.0,NY,21-48 35th St APT 4C,11105,2073361099
1.0,1.0,New York,FOR_SALE,CONDO,40.780876,0.0,-73.95938,380000.0,NY,150 E 83rd St APT 4D,10028,72531318
11.0,7.0,New York,FOR_SALE,TOWNHOUSE,40.76636,11695.0,-73.96609,37000000.0,NY,121 E 65th St,10065,448993493
1.0,2.0,Brooklyn,FOR_SALE,CONDO,40.630646,1200.0,-74.024864,375000.0,NY,402 Bay Ridge Pkwy APT 27,11209,444684736
2.0,3.0,Brooklyn,FOR_SALE,SINGLE_FAMILY,40.61911,1242.0,-73.91381,748000.0,NY,1453 E 65th St,11234,30781367
5.0,5.0,Staten Island,FOR_SALE,MULTI_FAMILY,40.526493,3800.0,-74.17482,1525000.0,NY,350 Poillon Ave,10312,450676413
1.0,2.0,Howard Beach,FOR_SALE,CONDO,40.666477,0.0,-73.84622,189000.0,NY,8825 155th Ave APT 4B,11414,245424218
3.0,3.0,Fresh Meadows,FOR_SALE,SINGLE_FAMILY,40.73318,1040.0,-73.80289,1298800.0,NY,166-03 69 Avenue,11365,2056716098
2.0,2.0,Staten Island,FOR_SALE,SINGLE_FAMILY,40.614346,910.0,-74.07851,485000.0,NY,16 Sky Ln,10304,62710910
3.0,5.0,Staten Island,FOR_SALE,SINGLE_FAMILY,40.58131,5600.0,-74.113174,1199000.0,NY,1233 Todt Hill Road,10304,32295203
1.0,2.0,New York,FOR_SALE,CONDO,40.81921,500.0,-73.95446,230000.0,NY,525 W 134th St #2A,10031,2063411848
2.0,2.0,Staten Island,FOR_SALE,TOWNHOUSE,40.560326,1080.0,-74.107506,488800.0,NY,21 Navesink Pl,10306,32335160
3.0,3.0,Jamaica,FOR_SALE,MULTI_FAMILY,40.66112,,-73.83391,999888.0,NY,158-20 100 Street,11414,32217119
2.0,3.0,Flushing,FOR_SALE,SINGLE_FAMILY,40.73236,1100.0,-73.89677,749900.0,NY,68-11 52nd Drive,11378,31982697
3.0,3.0,New York,FOR_SALE,CONDO,40.762882,0.0,-73.9575,800000.0,NY,435 E 65th Street #10C-6D-5H,10065,448721350
7.0,5.0,New York,FOR_SALE,SINGLE_FAMILY,40.7653,0.0,-73.9652,14995000.0,NY,163 E 64th St #1,10065,2071468365
5.0,4.0,New York,FOR_SALE,TOWNHOUSE,40.774975,4148.0,-73.95328,7995000.0,NY,304 E 82nd St,10028,31544301
1.0,3.0,Bronx,FOR_SALE,CONDO,40.824207,800.0,-73.809364,225000.0,NY,99B Edgewater Park #220B,10465,244447381
3.0,3.0,Staten Island,FOR_SALE,SINGLE_FAMILY,40.59705,1176.0,-74.064766,828888.0,NY,8 Cedar Ave,10305,32323249
3.0,10.0,Long Island City,FOR_SALE,MULTI_FAMILY,40.771942,3150.0,-73.921936,1499000.0,NY,2535 Crescent St,11102,31946947
1.0,1.0,New York,FOR_SALE,CONDO,40.742104,0.0,-74.002716,825000.0,NY,334 W 17th St UNIT PH5R,10011,450428843
3.0,3.0,Staten Island,FOR_SALE,SINGLE_FAMILY,40.607758,1887.0,-74.14992,425000.0,NY,37 Dreyer Ave #A,10314,2064678948
1.0,1.0,Brooklyn,FOR_SALE,CONDO,40.616364,720.0,-74.03392,390000.0,NY,302 96th St APT 4R,11209,122065850
1.0,1.0,Brooklyn,FOR_SALE,CONDO,40.69583,0.0,-73.99199,599000.0,NY,30 Clinton St UNIT 1E,11201,245015638
2.0,3.0,Brooklyn,FOR_SALE,CONDO,40.6832,1229.0,-73.99684,2150000.0,NY,280 Sackett St #3,11231,59996268
2.0,3.0,Flushing,FOR_SALE,SINGLE_FAMILY,40.720463,0.0,-73.87297,1380000.0,NY,8215 Penelope Ave,11379,31995916
1.0,2.0,Flushing,FOR_SALE,CONDO,40.75291,960.0,-73.821045,295000.0,NY,44-55 Kissena Boulevard #3B,11355,111024973
2.0,2.0,New York,FOR_SALE,CONDO,40.72209,741.0,-73.97752,750000.0,NY,753 E 5th St APT 4C,10009,69524026
5.0,4.0,New York,FOR_SALE,TOWNHOUSE,40.772583,3912.0,-73.95902,4275000.0,NY,197 E 76th St,10021,31535598
5.0,5.0,Brooklyn,FOR_SALE,SINGLE_FAMILY,40.612183,4500.0,-73.9089,1799000.0,NY,2346 E 64th St,11234,30788427
1.0,1.0,Woodside,FOR_SALE,CONDO,40.75757,,-73.906105,339000.0,NY,55-01 31st Ave #3B,11377,219839618
2.0,3.0,Jamaica,FOR_SALE,SINGLE_FAMILY,40.69132,1150.0,-73.76169,459000.0,NY,189-21 117th Road,11412,32193261
1.0,1.0,Staten Island,FOR_SALE,APARTMENT,40.61957,650.0,-74.09578,189000.0,NY,166 Arlo Rd #A,10301,244596070
1.0,2.0,New York,FOR_SALE,CONDO,40.78148,0.0,-73.95684,375000.0,NY,1070 Park Ave SUITE 1D,10128,244822552
1.0,2.0,Brooklyn,FOR_SALE,SINGLE_FAMILY,40.598385,950.0,-73.932495,250000.0,NY,2251 PLUMB 1ST STREET #6C,11229,113975916
4.0,4.0,New York,FOR_SALE,CONDO,40.7895,2454.0,-73.9765,1995000.0,NY,269 87th St #14A,10024,2066409638
2.0,3.0,Flushing,FOR_SALE,SINGLE_FAMILY,40.75397,1128.0,-73.90653,975000.0,NY,3255 54th St,11377,31954625
5.0,4.0,Whitestone,FOR_SALE,SINGLE_FAMILY,40.79634,2828.0,-73.81518,2449999.0,NY,150-50 6th Avenue,11357,2076759388
3.0,2.0,New York,FOR_SALE,CONDO,40.78148,1800.0,-73.95684,2400000.0,NY,1070 Park Ave #4E,10128,82580713
3.0,5.0,Bayside,FOR_SALE,SINGLE_FAMILY,40.76393,2247.0,-73.77751,1498000.0,NY,38-34 209th Street,11361,2138283786
3.0,4.0,Brooklyn,FOR_SALE,SINGLE_FAMILY,40.627796,2052.0,-73.90337,850000.0,NY,5 Paerdegat 13th Street,11236,143040774
6.0,5.0,Staten Island,FOR_SALE,SINGLE_FAMILY,40.52847,5860.0,-74.211136,1699900.0,NY,10 Maguire Ct,10309,32371016
3.0,3.0,Oakland Gardens,FOR_SALE,SINGLE_FAMILY,40.74557,,-73.76537,1388000.0,NY,61-25 211th St #1,11364,450731437
3.0,3.0,Staten Island,FOR_SALE,SINGLE_FAMILY,40.61774,1038.0,-74.08428,545000.0,NY,56 Waverly Pl,10304,32287573
2.0,2.0,Brooklyn,FOR_SALE,CONDO,40.653255,0.0,-73.97306,1195000.0,NY,185 Prospect Park SW APT 303,11218,450865228
4.0,7.0,Forest Hills,FOR_SALE,SINGLE_FAMILY,40.715034,3046.0,-73.84596,2488000.0,NY,93 Groton St,11375,32004523
2.0,3.0,Kew Gardens,FOR_SALE,CONDO,40.7056,1086.0,-73.83044,569000.0,NY,119-40 Metropolitan Avenue #G3,11415,112515775
4.0,7.0,Forest Hills,FOR_SALE,SINGLE_FAMILY,40.71873,5426.0,-73.84949,3888000.0,NY,6936 Dartmouth St,11375,32003836
4.0,5.0,Brooklyn,FOR_SALE,MULTI_FAMILY,40.644768,2052.0,-73.90516,968000.0,NY,1034 E 95th St FLOOR 1,11236,450780056
6.0,7.0,New York,FOR_SALE,TOWNHOUSE,40.75659,3652.0,-73.96929,1295000.0,NY,212 E 52nd Street,10022,143142011
2.0,3.0,Staten Island,FOR_SALE,SINGLE_FAMILY,40.61557,950.0,-74.13614,649000.0,NY,202 Watchogue Rd,10314,32283368
1.0,1.0,Oakland Gardens,FOR_SALE,CONDO,,720.0,,285000.0,NY,69-36 213th Street #B,11364,2076387419
2.0,4.0,South Ozone Park,FOR_SALE,SINGLE_FAMILY,40.68387,1658.0,-73.81041,800000.0,NY,132-09 111 th Avenue,11420,450283001
2.0,3.0,Forest Hills,FOR_SALE,SINGLE_FAMILY,40.711548,1884.0,-73.85044,1250000.0,NY,93-01 71st Ave #1,11375,450774402
1.0,2.0,Bronx,FOR_SALE,SINGLE_FAMILY,40.845608,1312.0,-73.85733,599995.0,NY,926 Van Nest Avenue,10462,29814047
3.0,2.0,Staten Island,FOR_SALE,TOWNHOUSE,40.560284,1524.0,-74.18297,499900.0,NY,150 Ilyssa Way,10312,32360120
2.0,3.0,Far Rockaway,FOR_SALE,CONDO,40.60428,1200.0,-73.74782,229000.0,NY,10-40 Nielson ST #5M,11691,245528800
1.0,2.0,New York,FOR_SALE,CONDO,40.78478,780.0,-73.97785,678000.0,NY,203 W 81ST Street #4E,10024,31525321
3.0,5.0,Staten Island,FOR_SALE,MULTI_FAMILY,40.633236,1470.0,-74.0913,675000.0,NY,251 Castleton Ave,10301,32273563
6.0,7.0,Bayside,FOR_SALE,MULTI_FAMILY,40.763474,,-73.77441,1699000.0,NY,210-11 41st Avenue,11361,2077565106
1.0,1.0,Brooklyn,FOR_SALE,CONDO,40.70019,0.0,-73.98412,338000.0,NY,167 Sands St #217,11201,320250852
2.0,3.0,New York,FOR_SALE,CONDO,40.786533,0.0,-73.97498,1525000.0,NY,160 W 85th St APT 5G,10024,244837460
4.0,4.0,New York,FOR_SALE,CONDO,40.7206,2830.0,-74.0057,8000000.0,NY,260 W Broadway #9/10B,10013,2055682099
3.0,3.0,Flushing,FOR_SALE,SINGLE_FAMILY,40.759766,1408.0,-73.76665,958000.0,NY,4526 215th Place,11361,32082053
1.0,2.0,Brooklyn,FOR_SALE,CONDO,40.671024,0.0,-73.972115,1395000.0,NY,59 Montgomery Pl #3AB,11215,450179467
3.0,2.0,Brooklyn,FOR_SALE,CONDO,40.67356,2122.0,-73.958984,2495000.0,NY,578 Sterling Place #1,11238,320251719
3.0,4.0,Flushing,FOR_SALE,TOWNHOUSE,40.72566,1850.0,-73.82213,1250000.0,NY,141-49 72nd Crescent,11367,32068147
2.0,3.0,Staten Island,FOR_SALE,SINGLE_FAMILY,40.54147,2588.0,-74.20727,848888.0,NY,1272 Woodrow Rd,10309,32370490
6.0,4.0,New York,FOR_SALE,TOWNHOUSE,40.737488,4917.0,-73.987274,6995000.0,NY,111 E 19th St,10003,31506433
2.0,5.0,Jamaica,FOR_SALE,MULTI_FAMILY,40.684376,,-73.811745,950000.0,NY,109-35 131st Street,11420,32171663
2.0,3.0,Jamaica,FOR_SALE,SINGLE_FAMILY,40.708076,1200.0,-73.73728,655000.0,NY,218-31 110 Avenue,11429,32163109
2.0,3.0,Flushing,FOR_SALE,SINGLE_FAMILY,40.758865,1260.0,-73.78609,849000.0,NY,4230 196th St,11358,32045874
2.0,4.0,Bronx,FOR_SALE,MULTI_FAMILY,40.850037,1536.0,-73.83276,799999.0,NY,1920 Pilgrim Avenue,10461,29816643
4.0,4.0,New York,FOR_SALE,TOWNHOUSE,40.731285,0.0,-74.004585,11500000.0,NY,66 Bedford St,10014,31499215
4.0,6.0,Brooklyn,FOR_SALE,MULTI_FAMILY,40.68111,3240.0,-73.95237,2199000.0,NY,123A Halsey St,11216,30610430
2.0,3.0,Brooklyn,FOR_SALE,SINGLE_FAMILY,40.620426,1196.0,-74.012726,1299000.0,NY,1142 78th St,11228,30707633
2.0,4.0,Jamaica,FOR_SALE,SINGLE_FAMILY,40.69045,1283.0,-73.73215,799900.0,NY,118-11 230 Street,11411,32197031
6.0,5.0,Staten Island,FOR_SALE,MULTI_FAMILY,40.505802,2226.0,-74.2436,1359900.0,NY,183 Brighton St,10307,89076302
1.0,4.0,Bronx,FOR_SALE,CONDO,40.82655,1075.0,-73.89067,189000.0,NY,1116 Hoe Avenue #1B,10459,442455957
1.0,2.0,Flushing,FOR_SALE,CONDO,40.72186,0.0,-73.85589,425000.0,NY,67-30 Clyde Street #6W,11375,114442908
2.0,4.0,Brooklyn,FOR_SALE,SINGLE_FAMILY,40.619003,1458.0,-74.010376,990000.0,NY,1248 78th St #A,11228,30707739
2.0,4.0,Flushing,FOR_SALE,MULTI_FAMILY,40.723724,1984.0,-73.89105,1228000.0,NY,5923 69th Ln,11378,31990496
2.0,3.0,Jamaica,FOR_SALE,SINGLE_FAMILY,40.712524,1164.0,-73.74091,650000.0,NY,10315 217th Street,11429,32160850
1.0,1.0,New York,FOR_SALE,CONDO,40.749577,0.0,-73.97901,715000.0,NY,67 Park Ave #11D,10016,82784418
2.0,3.0,Jamaica,FOR_SALE,SINGLE_FAMILY,40.69688,1334.0,-73.77377,810000.0,NY,111-54 178th Place,11433,32141822
1.0,1.0,New York,FOR_SALE,CONDO,40.757565,810.0,-73.96459,725000.0,NY,333 E 55th St UNIT PHC,10022,31532342
1.0,2.0,Little Neck,FOR_SALE,CONDO,40.75779,960.0,-73.72675,469000.0,NY,251-25 61st Avenue #768,11362,450787198
1.0,2.0,Brooklyn,FOR_SALE,CONDO,40.677116,825.0,-73.94472,425000.0,NY,1384 Pacific Street #A2,11216,245062889
2.0,2.0,Bayside,FOR_SALE,CONDO,40.779163,1000.0,-73.78109,725000.0,NY,2 Bay Club Drive #3Z3,11360,2099860201
,3.0,Flushing,FOR_SALE,MULTI_FAMILY,40.763298,1260.0,-73.87217,825000.0,NY,2545 97th Street,11369,31960342
2.0,3.0,Staten Island,FOR_SALE,SINGLE_FAMILY,40.57278,1881.0,-74.1334,858000.0,NY,39 Morton St,10306,145558327
1.0,2.0,Brooklyn,FOR_SALE,CONDO,40.66593,0.0,-73.978714,925000.0,NY,813 8th Ave APT 4R,11215,82384177
2.0,3.0,Brooklyn,FOR_SALE,SINGLE_FAMILY,40.642506,0.0,-73.93937,750000.0,NY,538 E 40th St,11203,30661732
2.0,2.0,New York,FOR_SALE,CONDO,40.80057,1250.0,-73.97065,1495000.0,NY,320 W 104th St UNIT GARDEN,10025,447070924
2.0,3.0,Flushing,FOR_SALE,CONDO,40.760986,1300.0,-73.8259,498000.0,NY,142-05 Roosevelt Avenue #214,11354,2077345351
2.0,2.0,Brooklyn,FOR_SALE,SINGLE_FAMILY,40.618336,880.0,-74.02357,995000.0,NY,626 88th St,11228,30700567
4.0,5.0,New York,FOR_SALE,SINGLE_FAMILY,40.806404,4600.0,-73.94764,2595000.0,NY,115 W 122nd St,10027,143177021
2.0,4.0,Brooklyn,FOR_SALE,MULTI_FAMILY,40.610817,1836.0,-73.937935,899000.0,NY,3118 Avenue R,11234,30783674
3.0,5.0,Flushing,FOR_SALE,MULTI_FAMILY,40.74601,0.0,-73.90803,1288000.0,NY,40-03 Woodside Ave,11377,31956663
2.0,3.0,Brooklyn,FOR_SALE,SINGLE_FAMILY,40.640045,1260.0,-74.02829,1750000.0,NY,138 Wakeman Pl,11220,30691352
3.0,3.0,Forest Hills,FOR_SALE,MULTI_FAMILY,40.722893,0.0,-73.852745,1100000.0,NY,67-92 Austin St #TOWNHOUSE,11375,450198326
2.0,3.0,Staten Island,FOR_SALE,SINGLE_FAMILY,40.61459,1800.0,-74.1341,669000.0,NY,27 Frederick St,10314,32283338
1.0,1.0,New York,FOR_SALE,CONDO,40.77569,0.0,-73.95517,429000.0,NY,218 E 82nd St APT 4FW,10028,79506190
3.0,5.0,Brooklyn,FOR_SALE,TOWNHOUSE,40.729496,3906.0,-73.95625,4500000.0,NY,115 Milton St,11222,30620163
1.0,2.0,Brooklyn,FOR_SALE,CONDO,40.659485,0.0,-73.97731,850000.0,NY,41 Prospect Park SW APT 2B,11215,245026635
2.0,2.0,Brooklyn,FOR_SALE,SINGLE_FAMILY,40.6026,1540.0,-73.940834,848000.0,NY,2964 Avenue T,11229,30743945
3.0,3.0,Glendale,FOR_SALE,SINGLE_FAMILY,40.706394,1312.0,-73.86969,849000.0,NY,7962 77th Avenue,11385,32017859
2.0,2.0,Flushing,FOR_SALE,CONDO,40.76609,709.0,-73.82051,620000.0,NY,146-10 35th Avenue #6B,11354,447397062
2.0,3.0,Staten Island,FOR_SALE,SINGLE_FAMILY,40.582138,1445.0,-74.11241,965000.0,NY,1197 Todt Hill Road,10304,32295208
3.0,3.0,Flushing,FOR_SALE,SINGLE_FAMILY,40.765247,1321.0,-73.77517,1260000.0,NY,3816 211th Street,11361,143501516
2.0,3.0,Bronx,FOR_SALE,SINGLE_FAMILY,40.882896,1296.0,-73.90547,725000.0,NY,286 W 234th St,10463,29851951
6.0,6.0,Brooklyn,FOR_SALE,SINGLE_FAMILY,40.73061,3750.0,-73.952225,2000000.0,NY,185 Greenpoint Ave,11222,450784256
3.0,3.0,Staten Island,FOR_SALE,SINGLE_FAMILY,40.59759,1176.0,-74.082245,629999.0,NY,22 Kermit Ave,10305,32324974
3.0,6.0,Brooklyn,FOR_SALE,MULTI_FAMILY,40.659515,3300.0,-73.9522,1695000.0,NY,253 Rutland Rd #1,11225,450891675
1.0,2.0,Staten Island,FOR_SALE,SINGLE_FAMILY,40.583,942.0,-74.15804,499000.0,NY,52 Saturn Ln #52,10314,32315074
4.0,7.0,Bronx,FOR_SALE,MULTI_FAMILY,40.835476,3570.0,-73.851166,1100000.0,NY,2216 Lyon Avenue,10462,29811414
4.0,6.0,Staten Island,FOR_SALE,MULTI_FAMILY,40.61575,2304.0,-74.08927,800000.0,NY,42 Pleasant Valley Ave,10304,32287215
1.0,3.0,Brooklyn,FOR_SALE,APARTMENT,40.59966,1000.0,-73.93457,265000.0,NY,3105 Avenue V APT 1F,11229,245019998
1.0,2.0,Brooklyn,FOR_SALE,SINGLE_FAMILY,40.638336,892.0,-74.025475,699999.0,NY,266 Wakeman Pl,11220,30691416
1.0,1.0,New York,FOR_SALE,CONDO,40.75922,0.0,-73.99023,399000.0,NY,349 W 44th St APT 1FE,10036,244782876
4.0,4.0,Staten island,FOR_SALE,MULTI_FAMILY,40.616474,1584.0,-74.08983,849000.0,NY,148 Hillside Ave,10304,143701273
2.0,2.0,Brooklyn,FOR_SALE,CONDO,40.63067,1000.0,-73.905945,375000.0,NY,8103 Ave M #35,11236,30770877
,,Jamaica,FOR_SALE,MULTI_FAMILY,40.683506,,-73.85835,450000.0,NY,95-16 82nd street,11416,32111462
4.0,5.0,Brooklyn,FOR_SALE,MULTI_FAMILY,40.67947,3360.0,-73.994026,3050000.0,NY,278 Carroll St,11231,30572682
3.0,4.0,Queens Village,FOR_SALE,SINGLE_FAMILY,40.724617,1500.0,-73.73875,749990.0,NY,92-05 Springfield Boulevard,11428,2056780808
2.0,2.0,New York,FOR_SALE,CONDO,40.734898,0.0,-74.004715,1500000.0,NY,373 Bleecker St,10014,219647135
2.0,3.0,Staten Island,FOR_SALE,SINGLE_FAMILY,40.57552,1500.0,-74.12491,575000.0,NY,3096 Richmond Rd,10306,32337961
1.0,2.0,New York,FOR_SALE,SINGLE_FAMILY,40.819,1000.0,-73.94,425000.0,NY,137 W 141st St APT 42,10030,2120588562
4.0,5.0,Staten Island,FOR_SALE,SINGLE_FAMILY,40.59797,2248.0,-74.16471,875000.0,NY,117 Gary Pl,10314,32309760
3.0,9.0,Flushing,FOR_SALE,MULTI_FAMILY,40.70246,3712.0,-73.8991,1350000.0,NY,6003 69th Avenue,11385,32010063
4.0,4.0,Bayside,FOR_SALE,SINGLE_FAMILY,40.769127,2000.0,-73.778625,2030000.0,NY,3405 Corporal Kennedy Street,11361,450172749
1.0,0.0,Staten Island,FOR_SALE,CONDO,40.62771,624.0,-74.12295,99000.0,NY,999 Forest Avenue #MS-B,10310,94662434
5.0,4.0,New York,FOR_SALE,CONDO,40.756504,3086.0,-73.97335,15000000.0,NY,301 Park Ave #2702,10022,444366632
2.0,3.0,Flushing,FOR_SALE,SINGLE_FAMILY,40.72791,2850.0,-73.808655,759000.0,NY,7203 160th St,11365,32072780
1.0,1.0,Flushing,FOR_SALE,CONDO,40.72456,0.0,-73.84686,320000.0,NY,6910 Yellowstone Blvd APT 114,11375,245474039
10.0,6.0,New York,FOR_SALE,TOWNHOUSE,40.742764,9132.0,-73.99777,14995000.0,NY,217 W 20th St,10011,118328073
2.0,3.0,Glendale,FOR_SALE,SINGLE_FAMILY,40.70528,1246.0,-73.88775,858888.0,NY,6919 67th St,11385,32013914
2.0,2.0,New York,FOR_SALE,CONDO,40.731472,2050.0,-73.99996,2600000.0,NY,135 W 4th St APT 3E,10012,80003765
1.0,2.0,Brooklyn,FOR_SALE,CONDO,40.703457,863.0,-73.98435,1095000.0,NY,37 Bridge St APT 4A,11201,116165807
4.0,5.0,Brooklyn,FOR_SALE,SINGLE_FAMILY,40.66941,4696.0,-73.974,6700000.0,NY,623 2nd St,11215,30587334
1.0,1.0,Bayside,FOR_SALE,CONDO,40.779667,935.0,-73.78115,200000.0,NY,210-15 23rd Avenue #1J,11360,2080632868
4.0,6.0,Bronx,FOR_SALE,MULTI_FAMILY,40.869915,2040.0,-73.83558,950000.0,NY,1903 Arnow Avenue,10469,68311768
2.0,3.0,Floral Park,FOR_SALE,SINGLE_FAMILY,40.73343,1020.0,-73.70833,728000.0,NY,258-11 86 Avenue,11001,32104568
3.0,4.0,Far Rockaway,FOR_SALE,SINGLE_FAMILY,40.575916,2190.0,-73.86217,1700000.0,NY,14316 Cronston Ave,11694,32228385
3.0,7.0,Brooklyn,FOR_SALE,MULTI_FAMILY,40.63066,3551.0,-73.96555,2350000.0,NY,758 Westminster Rd,11230,30723666
2.0,2.0,New York,FOR_SALE,CONDO,40.723213,2250.0,-73.99254,3500000.0,NY,259 Bowery FL 2,10002,2071671250
12.0,12.0,New York,FOR_SALE,TOWNHOUSE,40.747482,11638.0,-73.979645,17500000.0,NY,123 E 35th St,10016,31507246
2.0,2.0,New York,FOR_SALE,CONDO,40.73917,1152.0,-73.98055,1000000.0,NY,242 E 25th St APT 12B,10010,321905375
1.0,1.0,New York,FOR_SALE,CONDO,40.763065,750.0,-73.97766,899500.0,NY,77 W 55th St APT 21G,10019,31527293
1.0,0.0,New York,FOR_SALE,CONDO,40.747833,0.0,-73.97113,288818.0,NY,5 Tudor City Pl APT 1818,10017,72539408
6.0,5.0,New York,FOR_SALE,SINGLE_FAMILY,40.766903,8725.0,-73.97015,19500000.0,NY,10 E 64th St,10065,31533428
1.0,0.0,New York,FOR_SALE,TOWNHOUSE,40.81077,,-73.94022,222000.0,NY,17 131st Street #1A,10037,408363285
2.0,3.0,Staten Island,FOR_SALE,SINGLE_FAMILY,40.567413,1376.0,-74.105865,719900.0,NY,34 Titus Ave,10306,32334543
5.0,5.0,New York,FOR_SALE,CONDO,40.74092,5777.0,-73.990486,22000000.0,NY,170 5th Ave UNIT PENTHOUSE,10010,442532860
1.0,0.0,New York,FOR_SALE,CONDO,40.79113,0.0,-73.978546,275000.0,NY,345 W 88th St APT 5H,10024,244700478
1.0,1.0,Brooklyn,FOR_SALE,CONDO,40.692776,0.0,-73.994064,995000.0,NY,132 Joralemon St #3BC,11201,110280099
1.0,1.0,New York,FOR_SALE,CONDO,40.76516,0.0,-73.967865,360000.0,NY,575 Park Ave APT 1006,10065,443274708
4.0,7.0,Bronx,FOR_SALE,MULTI_FAMILY,40.864594,2268.0,-73.86087,1249998.0,NY,2553 Radcliff Avenue,10469,29820714
3.0,5.0,Brooklyn,FOR_SALE,MULTI_FAMILY,40.65341,2300.0,-73.92306,799000.0,NY,80 E 58th St,11203,30653125
3.0,6.0,Brooklyn,FOR_SALE,MULTI_FAMILY,40.60244,1980.0,-74.00803,1250000.0,NY,8844 18th Ave,11214,30715013
4.0,5.0,Flushing,FOR_SALE,SINGLE_FAMILY,40.7284,4400.0,-73.8409,1699000.0,NY,11230 68th Ave,11375,31979094
2.0,2.0,Brooklyn,FOR_SALE,CONDO,40.63112,1069.0,-73.97228,599000.0,NY,702 Ocean Pkwy #5R,11230,450655203
2.0,2.0,Brooklyn,FOR_SALE,CONDO,40.67468,1093.0,-73.96228,1450000.0,NY,475 Sterling Pl APT 3D,11238,89068197
6.0,6.0,New York,FOR_SALE,TOWNHOUSE,40.735935,5100.0,-74.00385,22500000.0,NY,262 W 11th St,10014,143092088
2.0,2.0,Brooklyn,FOR_SALE,CONDO,40.676807,1633.0,-73.97422,1800000.0,NY,38 7th Ave APT 1,11217,83045347
3.0,3.0,New York,FOR_SALE,CONDO,40.706913,2202.0,-74.008575,2200000.0,NY,50 Pine St #12PHN,10005,450554492
3.0,7.0,Staten Island,FOR_SALE,MULTI_FAMILY,40.633244,,-74.11629,779999.0,NY,56 South St.,10310,72508994
8.0,8.0,New York,FOR_SALE,CONDO,40.7645,7762.0,-73.9745,28700000.0,NY,1 Central Park S #1801/1901,10019,2057117186
2.0,2.0,Staten Island,FOR_SALE,TOWNHOUSE,40.613747,910.0,-74.079475,360000.0,NY,48 Studio Ln,10304,32320684
1.0,2.0,Elmhurst,FOR_SALE,CONDO,40.73527,988.0,-73.86573,452000.0,NY,94-31 59th Ave #2E,11373,2077013312
2.0,3.0,Staten Island,FOR_SALE,SINGLE_FAMILY,40.54407,1400.0,-74.16691,820000.0,NY,42 Sylvia St,10312,32355300
1.0,1.0,New York,FOR_SALE,CONDO,40.724117,0.0,-74.00357,675000.0,NY,57 Thompson St APT 2B,10012,72511981
1.0,1.0,New York,FOR_SALE,CONDO,40.76792,0.0,-73.99,375000.0,NY,500 W 55th St APT 3E,10019,353481823
1.0,3.0,Brooklyn,FOR_SALE,SINGLE_FAMILY,40.649776,0.0,-73.93162,635000.0,NY,4814 Snyder Ave,11203,30654197
3.0,5.0,Jamaica,FOR_SALE,SINGLE_FAMILY,40.685802,1500.0,-73.79775,869000.0,NY,111-62 146th Street,11435,32180479
1.0,2.0,Brooklyn,FOR_SALE,CONDO,40.67376,0.0,-73.96815,999000.0,NY,274 Saint Johns Pl APT 3C,11238,125718741
2.0,2.0,Staten Island,FOR_SALE,TOWNHOUSE,40.55578,1008.0,-74.20068,499999.0,NY,1942 Arthur Kill Rd,10312,32363061
1.0,2.0,Whitestone,FOR_SALE,CONDO,40.779663,786.0,-73.79172,359000.0,NY,19-32 202nd Street Apt #1-179,11357,450777241
4.0,4.0,Brooklyn,FOR_SALE,SINGLE_FAMILY,40.626896,2796.0,-73.952065,2299000.0,NY,3098 Bedford Ave,11210,30751420
3.0,4.0,Brooklyn,FOR_SALE,MULTI_FAMILY,40.62308,2015.0,-74.03187,1325000.0,NY,269 87th St,11209,30699767
3.0,4.0,Middle Village,FOR_SALE,MULTI_FAMILY,40.713634,2585.0,-73.88442,1328000.0,NY,66-36 71st Street,11379,2062758325
2.0,5.0,Brooklyn,FOR_SALE,MULTI_FAMILY,40.650738,2226.0,-73.97946,1700000.0,NY,57 E 2nd St,11218,30671066
1.0,1.0,Staten Island,FOR_SALE,SINGLE_FAMILY,40.573658,420.0,-74.08814,229999.0,NY,665 Hunter Avenue,10306,32333707
2.0,4.0,Jamaica,FOR_SALE,SINGLE_FAMILY,40.718445,1372.0,-73.777596,1188000.0,NY,18612 Cambridge Rd,11432,32136078
2.0,3.0,Flushing,FOR_SALE,SINGLE_FAMILY,40.796528,3038.0,-73.81902,1350000.0,NY,3-28 149th Place,11357,32027114
2.0,2.0,Long Island City,FOR_SALE,CONDO,40.747585,1176.0,-73.94611,1997000.0,NY,21-30 44th Dr #5E,11101,2079581856
1.0,1.0,Sunnyside,FOR_SALE,CONDO,40.74508,900.0,-73.92319,450000.0,NY,43-08 41st St #5D,11104,450847927
2.0,4.0,Brooklyn,FOR_SALE,SINGLE_FAMILY,40.62839,0.0,-74.018745,1499000.0,NY,639 74th St,11209,30694677
2.0,2.0,New York,FOR_SALE,CONDO,40.73987,1100.0,-73.98276,900000.0,NY,330 3rd Ave APT 2C,10010,219655282
6.0,5.0,Flushing,FOR_SALE,SINGLE_FAMILY,40.74568,3095.0,-73.79418,2499900.0,NY,4953 Fresh Meadow Lane,11365,32050954
4.0,6.0,Jamaica,FOR_SALE,MULTI_FAMILY,40.710728,1548.0,-73.791176,920000.0,NY,170-11 88 Avenue,11432,2080339269
1.0,3.0,New York,FOR_SALE,CONDO,40.7882,754.0,-73.9476,725000.0,NY,1810 3rd Ave APT A7D,10029,2102415787
1.0,1.0,Brooklyn,FOR_SALE,CONDO,40.614937,0.0,-73.94705,165000.0,NY,2705 Kings Hwy #4Q,11229,245054583
4.0,3.0,Staten Island,FOR_SALE,SINGLE_FAMILY,40.585255,2296.0,-74.16018,699000.0,NY,121 Rockne St,10314,32313969
2.0,4.0,Saint Albans,FOR_SALE,SINGLE_FAMILY,40.691177,1766.0,-73.781685,718888.0,NY,112-35 168th St,11433,2056636722
3.0,4.0,Brooklyn,FOR_SALE,MULTI_FAMILY,40.68409,2972.0,-73.94865,2495000.0,NY,292 Putnam Ave,11216,30609784
10.0,7.0,New York,FOR_SALE,CONDO,40.76947,5000.0,-73.96872,17500000.0,NY,860 5th Ave,10065,31533654
2.0,3.0,Flushing,FOR_SALE,SINGLE_FAMILY,40.789055,1344.0,-73.80801,1290000.0,NY,1414 154th Street,11357,32032003
2.0,3.0,Staten Island,FOR_SALE,CONDO,,1166.0,,549000.0,NY,1718 Forest Hill Rd #1,10314,440783949
1.0,2.0,Staten Island,FOR_SALE,SINGLE_FAMILY,40.573524,840.0,-74.08981,469999.0,NY,118 Baden Pl,10306,32333263
4.0,4.0,Bayside Hills,FOR_SALE,SINGLE_FAMILY,40.753143,1834.0,-73.76774,1295000.0,NY,5005 212th St,11364,32083559
1.0,1.0,Bronx,FOR_SALE,CONDO,40.879528,780.0,-73.87751,138000.0,NY,3400 Wayne Ave #C51,10467,450869104
2.0,3.0,Brooklyn,FOR_SALE,SINGLE_FAMILY,40.619854,1700.0,-74.016304,1370000.0,NY,1056 81st St,11228,30698399
1.0,1.0,Brooklyn,FOR_SALE,CONDO,40.709766,500.0,-73.96519,299000.0,NY,97 S 8th St APT 6,11249,448448780
2.0,3.0,Staten Island,FOR_SALE,SINGLE_FAMILY,40.624447,1170.0,-74.08209,349900.0,NY,42 Hudson St S,10304,443977555
6.0,6.0,Brooklyn,FOR_SALE,MULTI_FAMILY,40.700703,4875.0,-73.920784,850000.0,NY,225 Stanhope St,11237,30626113
2.0,3.0,Brooklyn,FOR_SALE,MULTI_FAMILY,40.69256,2340.0,-73.93256,841900.0,NY,534 Kosciuszko St,11221,30602386
1.0,2.0,New York,FOR_SALE,CONDO,40.743435,0.0,-74.002045,750000.0,NY,340 W 19th St APT 4,10011,72538172
3.0,4.0,Staten Island,FOR_SALE,SINGLE_FAMILY,40.569042,2600.0,-74.11803,1208000.0,NY,91 Allison Ave,10306,32336985
1.0,1.0,New York,FOR_SALE,CONDO,40.764793,0.0,-73.99241,390000.0,NY,520 W 50th St APT B4,10019,72519817
3.0,3.0,Bronx,FOR_SALE,MULTI_FAMILY,40.855892,2085.0,-73.85156,949000.0,NY,2013 Narragansett Avenue,10461,29818639
4.0,5.0,Staten Island,FOR_SALE,MULTI_FAMILY,40.560066,2288.0,-74.15969,889999.0,NY,350 Brookfield Ave,10308,32352448
2.0,2.0,Brooklyn,FOR_SALE,CONDO,40.736477,1222.0,-73.954094,1595000.0,NY,102 Clay St APT 4,11222,142866184
3.0,4.0,Flushing,FOR_SALE,SINGLE_FAMILY,40.766743,1931.0,-73.799065,1280000.0,NY,33-29 166 Street,11358,32043529
3.0,2.0,Brooklyn,FOR_SALE,SINGLE_FAMILY,40.59441,1432.0,-73.94591,799000.0,NY,4400 Bedford Ave,11229,30747154
2.0,4.0,Bayside Hills,FOR_SALE,SINGLE_FAMILY,40.750187,1800.0,-73.764404,1268000.0,NY,56-15 214th Street,11364,32084880
1.0,1.0,Bayside,FOR_SALE,CONDO,40.777912,1015.0,-73.77994,625000.0,NY,21019 26th Avenue #2N,11360,32056998
3.0,3.0,Glendale,FOR_SALE,SINGLE_FAMILY,40.696033,1364.0,-73.89058,950000.0,NY,7846 64th Place,11385,32015884
2.0,2.0,Jackson Heights,FOR_SALE,CONDO,,900.0,,368000.0,NY,33-07 91 Street #2A,11372,450349548
2.0,2.0,Brooklyn,FOR_SALE,CONDO,40.720505,1068.0,-73.95683,1595000.0,NY,55 Berry St APT 4B,11249,68313646
1.0,1.0,New York,FOR_SALE,CONDO,40.803234,0.0,-73.94716,250000.0,NY,56 W 119th St APT 1B,10026,2066441747
1.0,2.0,New York,FOR_SALE,CONDO,40.72281,0.0,-73.97728,595000.0,NY,745 E 6th St APT 1B,10009,2060764848
2.0,2.0,Brooklyn,FOR_SALE,TOWNHOUSE,40.685215,0.0,-73.98344,2995000.0,NY,112 Nevins St,11217,30566847
2.0,3.0,Brooklyn,FOR_SALE,CONDO,40.72746,1196.0,-73.95233,1899000.0,NY,123 Meserole Ave #3,11222,450857443
2.0,1.0,New York,FOR_SALE,CONDO,40.727127,0.0,-73.99593,985000.0,NY,77 Bleecker St APT 316,10012,79528951
3.0,5.0,Flushing,FOR_SALE,SINGLE_FAMILY,40.729404,0.0,-73.78707,1180000.0,NY,7519 182nd St,11366,32079577
2.0,2.0,New York,FOR_SALE,CONDO,40.773144,0.0,-73.964836,2100000.0,NY,20 E 74th St #8A,10021,450820860
1.0,2.0,Staten Island,FOR_SALE,SINGLE_FAMILY,,900.0,,189900.0,NY,2701 Goethals Rd N APT C9,10303,442119515
1.0,2.0,Little Neck,FOR_SALE,CONDO,40.759712,960.0,-73.73077,429000.0,NY,249-12 57th Ave #257,11362,79738895
1.0,3.0,Little Neck,FOR_SALE,CONDO,40.75852,1000.0,-73.73294,438000.0,NY,58-37 246th Crescent #1F,11362,450524790
2.0,2.0,New york,FOR_SALE,CONDO,40.70814,1000.0,-74.00685,915000.0,NY,80 John St APT 16E,10038,145586107
2.0,2.0,Bronx,FOR_SALE,SINGLE_FAMILY,40.866547,1088.0,-73.85314,650000.0,NY,2733 Tenbroeck Avenue,10469,29823230
5.0,4.0,New York,FOR_SALE,CONDO,40.70911,4665.0,-74.00635,20000000.0,NY,130 William St UNIT PENTHOUSE 65,10038,442156327
1.0,1.0,New York,FOR_SALE,CONDO,40.788998,0.0,-73.97776,795000.0,NY,328 W 86th St APT 3B,10024,72523626
2.0,2.0,New York,FOR_SALE,CONDO,40.795174,0.0,-73.96254,1295000.0,NY,415 Central Park W APT 6B,10025,72534318
4.0,5.0,Jamaica,FOR_SALE,SINGLE_FAMILY,40.717716,4400.0,-73.76816,3350000.0,NY,19619 Como Ave,11423,32146340
1.0,0.0,New York,FOR_SALE,CONDO,40.73917,0.0,-73.98055,320000.0,NY,242 E 25th St APT 3E,10010,321905389
1.0,2.0,Astoria,FOR_SALE,CONDO,40.776028,514.0,-73.90814,350000.0,NY,21-06 35th Street #3E,11105,2067003521
4.0,4.0,Staten Island,FOR_SALE,MULTI_FAMILY,40.595562,2700.0,-74.16005,919000.0,NY,17 Orbit Ln,10314,59820539
1.0,0.0,New York,FOR_SALE,CONDO,40.74671,0.0,-74.0033,299000.0,NY,453 W 22nd St APT 2R,10011,123949573
